     3.02           OBSERVATION DATA    M (MIXED)           RINEX VERSION / TYPE
Assistant 1.0       StaticToRinex       20200827 161059 LCL PGM / RUN BY / DATE 
       G = GPS       R = GLONASS       C = COMPASS          COMMENT             
       S = SBAS      J = QZSS          E = GALILEO          COMMENT             
0000                                                        MARKER NAME         
1                                                           MARKER NUMBER       
                                                            MARKER TYPE         
                                                            OBSERVER / AGENCY
                                                            REC # / TYPE / VERS 
0                                                           ANT # / TYPE        
 -2272573.8172  5008166.8642  3219432.9202                  APPROX POSITION XYZ 
        0.0000        0.0000        0.0000                  ANTENNA: DELTA H/E/N
C   12 C1I L1I D1I S1I C7I L7I D7I S7I C6I L6I D6I S6I      SYS / # / OBS TYPES 
DBHZ                                                        COMMENT             
     1.000                                                  INTERVAL            
  2020    08    27    07    55   21.0000000     GPS         TIME OF FIRST OBS   
  2020    08    27    08    10    7.0000000     GPS         TIME OF LAST OBS    
     0                                                      RCV CLOCK OFFS APPL 
C L1I  0.00000                                              SYS / PHASE SHIFT   
C L7I  0.00000                                              SYS / PHASE SHIFT   
C L6I  0.00000                                              SYS / PHASE SHIFT   
    18                                                      LEAP SECONDS        
*** Above antenna height is from mark to PHASE CENTER.      COMMENT             
     0     0        0.0000        ANT MEASURE TYPE/HEIGT    COMMENT             
    0.0000    0.0000    0.0000    0.0000    0.0000          COMMENT             
                    BASE STATION                            COMMENT             
                                                            END OF HEADER       
> 2020 08 27 07 55 21.0000000  0  7       0.000000000000
C06  36198816.500 7 188496735.126 7        76.430 7        42.936 7                                                                  36198813.434 5 153169027.968 5        60.563 5        35.785 5
C08  36069431.211 6 187822989.650 6         9.418 6        38.795 6  36069426.348 6 145236628.089 6         8.063 6        36.231 6                                                                
C13  35676781.648 6 185778367.072 6       407.465 6        36.335 6  35676783.402 5 143655622.130 5       314.938 5        32.407 5  35676782.184 5 150960145.550 5       331.891 5        35.154 5
C16  36410426.523 5 189598644.518 5       252.543 5        35.785 5                                                                                                                                
C20  23059517.785 5 120076951.367 5     -1232.457 5        35.785 5                                                                  23059513.828 7  97572348.909 7     -1001.037 7        43.701 7
C32  26786713.527 7 139485438.293 7     -2115.855 7        42.728 7                                                                  26786717.805 6 113343367.067 6     -1719.104 6        38.795 6
C37  25125780.840 7 130836535.927 7       793.617 7        46.888 7                                                                  25125783.559 7 106315411.991 7       645.230 7        44.682 7
> 2020 08 27 07 55 22.0000000  0  7       0.000000000000
C06  36198801.926 7 188496659.090 7        76.240 7        42.981 7                                                                  36198798.980 5 153168966.171 5        61.006 5        35.785 5
C08  36069429.191 6 187822980.063 6         9.326 6        38.736 6  36069424.898 6 145236620.703 6         7.432 6        36.438 6                                                                
C13  35676703.074 6 185777959.470 6       407.607 6        36.335 6  35676705.008 5 143655306.985 5       314.541 5        32.407 5  35676703.648 5 150959814.337 5       330.635 5        35.017 5
C16  36410377.535 5 189598392.357 5       252.275 5        35.418 5                                                                                                                                
C20  23059754.227 5 120078183.093 5     -1231.885 5        35.901 5                                                                  23059750.422 7  97573349.767 7     -1000.889 7        43.567 7
C32  26787119.715 7 139487553.908 7     -2115.732 7        42.775 7                                                                  26787124.078 6 113345086.190 6     -1719.814 6        38.795 6
C37  25125628.684 7 130835742.428 7       793.291 7        46.796 7                                                                  25125631.266 7 106314767.221 7       644.521 7        44.712 7
> 2020 08 27 07 55 23.0000000  0  7       0.000000000000
C06  36198787.281 7 188496583.243 7        75.469 7        42.845 7                                                                  36198784.262 5 153168904.519 5        61.676 5        35.666 5
C08  36069427.250 6 187822970.703 6         9.492 6        38.554 6  36069422.992 6 145236613.446 6         7.807 6        36.124 6                                                                
C13  35676624.504 6 185777552.037 6       407.109 6        36.231 6  35676626.148 5 143654991.907 5       315.189 5        32.144 5  35676625.512 5 150959483.274 5       331.168 5        35.154 5
C16  36410329.441 5 189598140.451 5       251.074 5        35.666 5                                                                                                                                
C20  23059990.852 5 120079414.937 5     -1232.109 5        35.544 5                                                                  23059987.148 7  97574350.732 7     -1000.629 7        43.448 7
C32  26787526.332 7 139489669.531 7     -2115.508 7        42.656 7                                                                  26787530.188 6 113346805.324 6     -1719.867 6        38.616 6
C37  25125476.422 7 130834949.435 7       792.656 7        46.547 7                                                                  25125478.988 7 106314122.842 7       644.078 7        44.772 7
> 2020 08 27 07 55 24.0000000  0  7       0.000000000000
C06  36198772.895 7 188496507.456 7        75.889 7        42.959 7                                                                  36198769.637 5 153168842.975 5        60.832 5        35.785 5
C08  36069425.414 6 187822961.465 6         8.721 6        38.616 6  36069421.121 6 145236606.286 6         8.035 6        36.014 6                                                                
C13  35676546.188 6 185777144.682 6       405.986 6        36.635 6  35676548.266 5 143654676.886 5       315.203 5        31.864 5  35676547.297 5 150959152.279 5       329.973 5        34.727 5
C16  36410281.035 5 189597888.556 5       251.748 5        35.666 5                                                                                                                                
C20  23060227.664 5 120080646.816 5     -1232.119 5        35.418 5                                                                  23060223.742 7  97575351.774 7     -1001.668 7        43.387 7
C32  26787932.633 7 139491785.083 7     -2115.281 7        42.868 7                                                                  26787936.410 6 113348524.372 6     -1719.168 6        38.676 6
C37  25125323.910 7 130834156.854 7       792.393 7        46.557 7                                                                  25125326.746 7 106313478.808 7       644.016 7        44.874 7
> 2020 08 27 07 55 25.0000000  0  7       0.000000000000
C06  36198758.438 7 188496431.834 7        75.525 7        43.003 7                                                                  36198755.316 5 153168781.507 5        60.344 5        35.785 5
C08  36069423.695 6 187822952.349 6         8.768 6        38.616 6  36069419.508 6 145236599.274 6         6.668 6        36.014 6                                                                
C13  35676467.770 6 185776737.377 6       407.420 6        36.731 6  35676470.059 5 143654362.031 5       313.055 5        32.407 5  35676469.051 5 150958821.334 5       330.207 5        35.017 5
C16  36410232.809 5 189597636.893 5       251.521 5        35.666 5                                                                                                                                
C20  23060464.152 5 120081878.814 5     -1232.170 5        35.154 5                                                                  23060460.273 7  97576352.854 7     -1001.238 7        43.663 7
C32  26788339.262 7 139493900.620 7     -2115.529 7        42.891 7                                                                  26788342.559 6 113350243.411 6     -1719.637 6        38.795 6
C37  25125171.871 7 130833364.731 7       791.736 7        46.335 7                                                                  25125174.625 7 106312835.159 7       643.234 7        44.845 7
> 2020 08 27 07 55 26.0000000  0  7       0.000000000000
C06  36198743.836 7 188496356.315 7        75.002 7        43.026 7                                                                  36198740.672 5 153168720.104 5        62.023 5        35.785 5
C08  36069421.863 6 187822943.417 6         7.678 6        38.676 6  36069417.680 6 145236592.363 6         6.098 6        36.231 6                                                                
C13  35676389.352 6 185776330.264 6       406.740 6        36.438 6  35676392.105 5 143654047.194 5       314.477 5        32.144 5  35676390.902 5 150958490.495 5       330.344 5        34.874 5
C16  36410184.473 5 189597385.298 5       251.584 5        35.544 5                                                                                                                                
C20  23060700.570 5 120083110.823 5     -1231.053 5        35.785 5                                                                  23060696.906 7  97577353.992 7     -1001.297 7        43.701 7
C32  26788745.672 7 139496016.088 7     -2116.111 7        43.092 7                                                                  26788748.887 6 113351962.393 6     -1719.285 6        38.854 6
C37  25125020.297 7 130832573.033 7       791.350 7        46.377 7                                                                  25125022.449 7 106312191.829 7       643.293 7        45.031 7
> 2020 08 27 07 55 27.0000000  0  7       0.000000000000
C06  36198729.434 7 188496280.938 7        74.969 7        43.026 7                                                                  36198726.234 5 153168658.869 5        60.615 5        35.785 5
C08  36069420.270 6 187822934.629 6         8.484 6        38.676 6  36069416.191 6 145236585.547 6         6.840 6        36.231 6                                                                
C13  35676311.059 6 185775923.276 6       406.434 6        36.635 6  35676313.848 5 143653732.448 5       313.832 5        31.864 5  35676312.766 5 150958159.776 5       329.697 5        34.727 5
C16  36410135.977 5 189597133.896 5       251.395 5        35.785 5                                                                                                                                
C20  23060937.188 5 120084343.011 5     -1231.242 5        35.288 5                                                                  23060933.551 7  97578355.224 7     -1001.553 7        43.605 7
C32  26789152.031 7 139498131.526 7     -2115.793 7        42.913 7                                                                  26789155.113 6 113353681.348 6     -1719.053 6        38.736 6
C37  25124868.273 7 130831781.804 7       790.516 7        46.156 7                                                                  25124870.516 7 106311548.894 7       642.510 7        44.989 7
> 2020 08 27 07 55 28.0000000  0  7       0.000000000000
C06  36198715.035 7 188496205.584 7        75.508 7        43.003 7                                                                  36198711.699 5 153168597.600 5        62.227 5        35.785 5
C08  36069418.711 6 187822925.902 6         9.023 6        38.968 6  36069414.242 6 145236578.816 6         6.355 6        36.335 6                                                                
C13  35676232.945 6 185775516.213 6       407.051 6        36.635 6  35676235.559 5 143653417.679 5       314.910 5        31.564 5  35676234.570 5 150957829.028 5       329.980 5        34.727 5
C16  36410087.953 5 189596882.528 5       250.625 5        35.154 5                                                                                                                                
C20  23061173.664 5 120085575.111 5     -1231.758 5        35.154 5                                                                  23061170.117 7  97579356.404 7     -1001.191 7        43.739 7
C32  26789558.250 7 139500246.796 7     -2115.566 7        42.959 7                                                                  26789561.344 6 113355400.191 6     -1719.121 6        38.911 6
C37  25124716.043 7 130830990.900 7       790.605 7        45.889 7                                                                  25124718.539 7 106310906.218 7       642.520 7        45.154 7
> 2020 08 27 07 55 29.0000000  0  7       0.000000000000
C06  36198700.406 7 188496130.410 7        74.449 7        42.936 7                                                                  36198697.133 5 153168536.549 5        61.334 5        35.901 5
C08  36069417.180 6 187822917.407 6         7.379 6        38.854 6  36069412.742 6 145236572.224 6         6.148 6        36.231 6                                                                
C13  35676154.895 6 185775109.354 6       406.654 6        36.231 6  35676157.293 5 143653103.063 5       314.527 5        31.564 5  35676156.496 5 150957498.390 5       330.807 5        35.154 5
C16  36410040.023 5 189596631.339 5       250.309 5        35.154 5                                                                                                                                
C20  23061410.164 5 120086807.386 5     -1232.738 5        35.666 5                                                                  23061406.652 7  97580357.714 7     -1001.498 7        43.701 7
C32  26789964.281 7 139502362.090 7     -2116.254 7        42.728 7                                                                  26789967.684 6 113357119.022 6     -1718.959 6        39.024 6
C37  25124564.047 7 130830200.492 7       789.799 7        45.832 7                                                                  25124566.766 7 106310263.949 7       641.861 7        45.154 7
> 2020 08 27 07 55 30.0000000  0  7       0.000000000000
C06  36198685.898 7 188496055.251 7        74.986 7        42.891 7                                                                  36198682.805 5 153168475.516 5        60.078 5        35.785 5
C08  36069415.508 6 187822908.897 6         8.502 6        38.911 6  36069411.180 6 145236565.703 6         5.686 6        36.731 6                                                                
C13  35676076.672 6 185774702.589 6       406.080 6        36.014 6  35676079.105 5 143652788.512 5       313.654 5        31.242 5  35676078.297 5 150957167.794 5       331.133 5        34.874 5
C16  36409991.742 5 189596380.177 5       251.002 5        35.154 5                                                                                                                                
C20  23061647.246 5 120088039.654 5     -1233.744 5        35.017 5                                                                  23061643.289 7  97581359.019 7     -1001.641 7        43.720 7
C32  26790370.457 7 139504477.213 7     -2115.443 7        42.728 7                                                                  26790373.852 6 113358837.746 6     -1718.691 6        38.795 6
C37  25124412.563 7 130829410.436 7       789.830 7        45.773 7                                                                  25124415.004 7 106309621.961 7       641.797 7        45.182 7
> 2020 08 27 07 55 31.0000000  0  7       0.000000000000
C06  36198671.500 7 188495980.092 7        75.363 7        42.891 7                                                                  36198668.273 5 153168414.402 5        61.047 5        35.901 5
C08  36069413.813 6 187822900.427 6         9.074 6        38.968 6  36069409.695 6 145236559.138 6         6.477 6        36.231 6                                                                
C13  35675998.563 5 185774295.618 5       407.688 5        35.901 5  35676000.781 5 143652473.820 5       316.105 5        31.564 5  35676000.234 5 150956837.176 5       332.160 5        35.154 5
C16  36409943.430 5 189596129.084 5       249.816 5        35.017 5                                                                                                                                
C20  23061883.793 5 120089271.810 5     -1232.801 5        34.727 5                                                                  23061879.871 7  97582360.252 7     -1001.492 7        43.605 7
C32  26790776.859 7 139506592.162 7     -2114.891 7        42.656 7                                                                  26790780.113 6 113360556.334 6     -1719.461 6        38.736 6
C37  25124260.902 7 130828620.669 7       789.875 7        45.581 7                                                                  25124263.316 7 106308980.225 7       642.004 7        45.379 7
> 2020 08 27 07 55 32.0000000  0  7       0.000000000000
C06  36198657.266 7 188495905.304 7        74.982 7        42.845 7                                                                  36198653.848 5 153168353.635 5        60.816 5        35.785 5
C08  36069412.207 6 187822892.375 6         9.025 6        38.676 6  36069408.094 6 145236552.939 6         5.803 6        36.335 6                                                                
C13  35675920.441 6 185773889.097 6       407.170 6        36.014 6  35675922.730 5 143652159.509 5       314.768 5        31.564 5  35675922.156 5 150956506.870 5       330.016 5        35.017 5
C16  36409895.070 5 189595878.300 5       251.232 5        34.874 5                                                                                                                                
C20  23062120.367 5 120090504.329 5     -1233.846 5        34.417 5                                                                  23062116.488 7  97583361.759 7     -1001.664 7        43.448 7
C32  26791183.031 7 139508707.320 7     -2115.252 7        42.751 7                                                                  26791186.465 6 113362275.075 6     -1718.910 6        38.676 6
C37  25124109.230 7 130827831.642 7       788.830 7        45.340 7                                                                  25124111.828 7 106308339.073 7       641.285 7        45.314 7
> 2020 08 27 07 55 33.0000000  0  7       0.000000000000
C06  36198643.160 7 188495830.663 7        74.508 7        42.798 7                                                                  36198639.492 5 153168292.979 5        60.805 5        35.901 5
C08  36069410.586 6 187822884.482 6         8.785 6        38.676 6  36069406.543 6 145236546.790 6         6.770 6        36.124 6                                                                
C13  35675842.336 6 185773482.721 6       406.129 6        36.231 6  35675843.875 5 143651845.274 5       313.938 5        30.895 5  35675844.082 5 150956176.684 5       329.242 5        34.874 5
C16  36409847.055 5 189595627.707 5       250.035 5        34.727 5                                                                                                                                
C20  23062357.066 5 120091736.883 5     -1232.777 5        34.727 5                                                                  23062353.254 7  97584363.326 7     -1001.344 7        43.567 7
C32  26791588.973 7 139510822.446 7     -2115.004 7        42.607 7                                                                  26791592.828 6 113363993.787 6     -1718.727 6        38.736 6
C37  25123957.723 7 130827043.035 7       788.688 7        44.903 7                                                                  25123960.285 7 106307698.274 7       640.648 7        45.182 7
> 2020 08 27 07 55 34.0000000  0  7       0.000000000000
C06  36198628.895 7 188495756.039 7        74.627 7        42.936 7                                                                  36198625.152 5 153168232.355 5        60.992 5        35.666 5
C08  36069408.984 6 187822876.688 6         7.322 6        38.968 6  36069404.727 6 145236540.759 6         5.621 6        36.014 6                                                                
C13  35675764.324 5 185773076.378 5       406.326 5        35.901 5  35675765.863 5 143651531.014 5       314.156 5        31.564 5  35675766.012 5 150955846.377 5       331.031 5        35.017 5
C16  36409798.910 5 189595377.177 5       250.506 5        34.874 5                                                                                                                                
C20  23062593.711 5 120092969.496 5     -1233.283 5        34.575 5                                                                  23062589.969 7  97585364.898 7     -1001.371 7        43.547 7
C32  26791995.004 7 139512937.439 7     -2115.119 7        42.680 7                                                                  26791998.973 6 113365712.391 6     -1718.891 6        38.676 6
C37  25123806.090 7 130826254.810 7       787.635 7        44.960 7                                                                  25123808.973 7 106307057.773 7       640.035 7        45.327 7
> 2020 08 27 07 55 35.0000000  0  7       0.000000000000
C06  36198614.547 7 188495681.313 7        74.555 7        43.070 7                                                                  36198610.805 5 153168171.602 5        62.025 5        35.666 5
C08  36069407.301 6 187822868.770 6         7.172 6        38.854 6  36069403.543 5 145236534.598 5         6.881 5        35.901 5                                                                
C13  35675686.371 5 185772669.818 5       407.875 5        35.785 5  35675687.371 5 143651216.746 5       312.818 5        31.564 5  35675687.836 5 150955516.093 5       331.166 5        34.727 5
C16  36409750.328 5 189595126.535 5       249.145 5        34.727 5                                                                                                                                
C20  23062830.203 5 120094201.897 5     -1233.063 5        34.575 5                                                                  23062826.539 7  97586366.334 7     -1001.803 7        43.488 7
C32  26792401.023 7 139515052.142 7     -2114.742 7        42.583 7                                                                  26792404.992 6 113367430.760 6     -1718.697 6        38.736 6
C37  25123654.730 7 130825466.757 7       787.504 7        44.874 7                                                                  25123657.777 7 106306417.420 7       640.363 7        45.506 7
> 2020 08 27 07 55 36.0000000  0  7       0.000000000000
C06  36198600.285 7 188495606.729 7        74.447 7        43.178 7                                                                  36198596.543 5 153168111.065 5        59.578 5        35.666 5
C08  36069405.773 6 187822861.013 6         7.670 6        38.911 6  36069401.910 6 145236528.622 6         5.820 6        36.124 6                                                                
C13  35675608.539 6 185772263.489 6       406.166 6        36.014 6  35675609.434 5 143650902.465 5       313.633 5        31.564 5  35675609.750 5 150955185.869 5       330.613 5        34.874 5
C16  36409702.117 5 189594876.073 5       248.002 5        35.154 5                                                                                                                                
C20  23063066.461 5 120095434.405 5     -1232.721 5        34.417 5                                                                  23063063.176 7  97587367.842 7     -1001.555 7        43.468 7
C32  26792807.164 7 139517166.813 7     -2115.416 7        42.704 7                                                                  26792811.098 6 113369149.079 6     -1718.098 6        38.968 6
C37  25123503.242 7 130824679.181 7       787.279 7        44.742 7                                                                  25123506.555 7 106305777.445 7       639.715 7        45.443 7
> 2020 08 27 07 55 37.0000000  0  7       0.000000000000
C06  36198585.938 7 188495532.182 7        74.689 7        43.070 7                                                                  36198582.086 5 153168050.457 5        59.789 5        35.418 5
C08  36069404.336 6 187822853.291 6         8.225 6        38.795 6  36069400.082 6 145236522.642 6         6.770 6        36.231 6                                                                
C13  35675530.301 6 185771857.115 6       406.721 6        36.124 6  35675531.375 5 143650588.186 5       313.449 5        31.242 5  35675531.781 5 150954855.710 5       330.043 5        35.017 5
C16  36409654.035 5 189594625.555 5       251.174 5        34.874 5                                                                                                                                
C20  23063302.949 5 120096666.874 5     -1231.600 5        33.905 5                                                                  23063299.840 7  97588369.361 7     -1001.404 7        43.527 7
C32  26793213.363 7 139519281.347 7     -2114.393 7        42.680 7                                                                  26793217.113 6 113370867.302 6     -1717.381 6        38.616 6
C37  25123351.918 7 130823891.961 7       787.424 7        44.590 7                                                                  25123355.426 7 106305137.783 7       639.359 7        45.456 7
> 2020 08 27 07 55 38.0000000  0  7       0.000000000000
C06  36198571.551 7 188495458.034 7        74.258 7        43.135 7                                                                  36198567.781 5 153167990.197 5        59.686 5        35.666 5
C08  36069402.867 6 187822846.033 6         7.637 6        38.795 6  36069398.934 6 145236517.076 6         4.971 6        36.231 6                                                                
C13  35675452.063 6 185771451.159 6       406.426 6        36.231 6  35675453.813 5 143650274.302 5       314.482 5        31.564 5  35675453.828 5 150954525.811 5       329.432 5        35.017 5
C16  36409605.844 5 189594375.595 5       249.453 5        35.017 5                                                                                                                                
C20  23063539.297 5 120097899.771 5     -1233.281 5        34.082 5                                                                  23063536.438 7  97589371.157 7     -1001.779 7        43.701 7
C32  26793619.203 7 139521396.103 7     -2114.453 7        42.656 7                                                                  26793623.289 6 113372585.739 6     -1718.398 6        38.968 6
C37  25123200.738 7 130823105.473 7       786.309 7        44.417 7                                                                  25123204.465 7 106304498.676 7       639.119 7        45.544 7
> 2020 08 27 07 55 39.0000000  0  7       0.000000000000
C06  36198557.406 7 188495383.840 7        74.092 7        42.981 7                                                                  36198553.695 5 153167929.875 5        61.119 5        35.666 5
C08  36069401.602 6 187822838.759 6         6.787 6        38.911 6  36069397.738 6 145236511.433 6         4.387 6        36.231 6                                                                
C13  35675374.242 6 185771045.098 6       406.748 6        36.124 6  35675375.992 5 143649960.372 5       313.059 5        31.564 5  35675375.988 5 150954195.916 5       328.736 5        34.727 5
C16  36409557.680 5 189594125.521 5       249.873 5        34.874 5                                                                                                                                
C20  23063775.637 5 120099132.519 5     -1232.434 5        34.082 5                                                                  23063773.117 7  97590372.874 7     -1001.791 7        43.567 7
C32  26794024.996 7 139523510.639 7     -2114.211 7        42.728 7                                                                  26794029.332 6 113374303.973 6     -1717.982 6        38.616 6
C37  25123049.691 7 130822319.235 7       785.869 7        44.417 7                                                                  25123053.273 7 106303859.804 7       638.639 7        45.494 7
> 2020 08 27 07 55 40.0000000  0  7       0.000000000000
C06  36198543.180 7 188495309.868 7        73.568 7        43.003 7                                                                  36198539.523 5 153167869.791 5        60.443 5        35.901 5
C08  36069400.180 6 187822831.677 6         7.416 6        38.795 6  36069396.352 6 145236505.984 6         4.824 6        36.124 6                                                                
C13  35675296.371 5 185770639.308 5       405.150 5        35.666 5  35675297.695 5 143649646.524 5       313.674 5        31.242 5  35675298.016 5 150953866.127 5       329.584 5        34.727 5
C16  36409509.645 5 189593875.678 5       249.584 5        34.727 5                                                                                                                                
C20  23064012.535 5 120100365.438 5     -1232.584 5        34.253 5                                                                  23064009.945 7  97591374.721 7     -1001.939 7        43.507 7
C32  26794431.207 7 139525625.237 7     -2114.771 7        42.775 7                                                                  26794435.410 6 113376022.258 6     -1718.814 6        38.736 6
C37  25122899.059 7 130821533.529 7       785.619 7        44.286 7                                                                  25122902.422 7 106303221.383 7       637.943 7        45.443 7
> 2020 08 27 07 55 41.0000000  0  7       0.000000000000
C06  36198528.898 7 188495235.848 7        73.686 7        42.936 7                                                                  36198525.270 5 153167809.649 5        59.703 5        35.666 5
C08  36069398.742 6 187822824.653 6         6.361 6        38.795 6  36069394.949 6 145236500.501 6         5.277 6        36.538 6                                                                
C13  35675218.559 5 185770233.393 5       405.893 5        35.901 5  35675219.523 5 143649332.648 5       313.400 5        31.242 5  35675220.152 5 150953536.292 5       329.293 5        34.874 5
C16  36409461.879 5 189593625.905 5       249.350 5        34.874 5                                                                                                                                
C20  23064249.379 5 120101598.297 5     -1232.389 5        34.253 5                                                                  23064246.668 7  97592376.523 7     -1001.898 7        43.586 7
C32  26794836.938 7 139527739.635 7     -2114.615 7        42.798 7                                                                  26794841.359 6 113377740.384 6     -1718.910 6        38.854 6
C37  25122747.980 7 130820748.137 7       785.111 7        44.202 7                                                                  25122751.723 7 106302583.177 7       637.691 7        45.605 7
> 2020 08 27 07 55 42.0000000  0  7       0.000000000000
C06  36198514.746 7 188495162.127 7        73.459 7        42.891 7                                                                  36198511.117 5 153167749.750 5        59.633 5        35.666 5
C08  36069397.609 6 187822817.896 6         7.268 6        38.854 6  36069393.996 6 145236495.311 6         4.500 6        36.231 6                                                                
C13  35675140.516 5 185769827.779 5       405.529 5        35.666 5  35675141.625 5 143649019.000 5       313.738 5        30.895 5  35675142.324 5 150953206.723 5       328.871 5        34.727 5
C16  36409413.777 5 189593376.309 5       249.826 5        34.874 5                                                                                                                                
C20  23064485.496 5 120102831.376 5     -1231.854 5        34.575 5                                                                  23064483.496 7  97593378.510 7     -1002.398 7        43.488 7
C32  26795242.797 7 139529854.127 7     -2114.668 7        42.704 7                                                                  26795247.469 6 113379458.540 6     -1717.379 6        38.795 6
C37  25122597.285 7 130819963.330 7       784.709 7        44.030 7                                                                  25122600.820 7 106301945.473 7       636.938 7        45.605 7
> 2020 08 27 07 55 43.0000000  0  7       0.000000000000
C06  36198500.629 7 188495088.421 7        74.096 7        42.798 7                                                                  36198496.785 5 153167689.837 5        60.412 5        35.666 5
C08  36069396.336 6 187822811.188 6         7.084 6        38.795 6  36069392.867 6 145236490.134 6         4.484 6        36.124 6                                                                
C13  35675062.758 5 185769422.179 5       405.795 5        35.666 5  35675064.047 5 143648705.396 5       314.289 5        30.517 5  35675064.426 5 150952877.182 5       328.498 5        34.874 5
C16  36409365.965 5 189593126.835 5       250.170 5        34.575 5                                                                                                                                
C20  23064722.434 5 120104064.452 5     -1232.096 5        34.727 5                                                                  23064720.301 7  97594380.462 7     -1001.795 7        43.488 7
C32  26795648.762 7 139531968.463 7     -2113.971 7        42.407 7                                                                  26795653.508 6 113381176.633 6     -1717.496 6        38.795 6
C37  25122446.371 7 130819178.886 7       784.057 7        43.887 7                                                                  25122450.105 7 106301308.024 7       637.424 7        45.506 7
> 2020 08 27 07 55 44.0000000  0  7       0.000000000000
C06  36198486.578 7 188495015.045 7        72.061 7        42.798 7                                                                  36198482.664 5 153167630.232 5        59.025 5        35.544 5
C08  36069394.844 6 187822804.837 6         5.498 6        38.676 6  36069391.371 6 145236485.180 6         4.844 6        36.335 6                                                                
C13  35674984.816 5 185769016.880 5       405.029 5        35.901 5  35674985.961 5 143648391.981 5       313.105 5        30.517 5  35674986.613 5 150952547.790 5       328.322 5        34.874 5
C16  36409318.324 5 189592877.626 5       249.131 5        34.253 5                                                                                                                                
C20  23064959.367 5 120105297.814 5     -1234.715 5        34.727 5                                                                  23064957.125 7  97595382.625 7     -1002.479 7        43.488 7
C32  26796054.543 7 139534082.937 7     -2114.930 7        42.433 7                                                                  26796059.531 6 113382894.813 6     -1717.264 6        38.616 6
C37  25122296.098 7 130818395.052 7       783.193 7        44.012 7                                                                  25122299.660 7 106300671.094 7       636.330 7        45.666 7
> 2020 08 27 07 55 45.0000000  0  7       0.000000000000
C06  36198472.727 7 188494941.772 7        73.453 7        42.845 7                                                                  36198468.680 5 153167570.712 5        58.895 5        35.544 5
C08  36069393.512 6 187822798.664 6         5.836 6        38.736 6  36069390.328 6 145236480.410 6         4.533 6        36.231 6                                                                
C13  35674907.148 6 185768611.729 6       404.273 6        36.124 6  35674908.113 5 143648078.608 5       314.633 5        30.895 5  35674908.777 5 150952218.479 5       329.305 5        35.017 5
C16  36409270.344 5 189592628.645 5       248.883 5        34.575 5                                                                                                                                
C20  23065196.141 5 120106531.212 5     -1233.227 5        34.727 5                                                                  23065194.043 7  97596384.892 7     -1002.414 7        43.527 7
C32  26796460.703 7 139536197.398 7     -2114.418 7        42.508 7                                                                  26796465.668 6 113384613.012 6     -1718.586 6        38.795 6
C37  25122145.629 7 130817611.690 7       782.965 7        43.777 7                                                                  25122149.242 7 106300034.563 7       635.926 7        45.642 7
> 2020 08 27 07 55 46.0000000  0  7       0.000000000000
C06  36198458.523 7 188494868.660 7        72.895 7        42.913 7                                                                  36198454.652 5 153167511.285 5        58.654 5        35.785 5
C08  36069392.398 6 187822792.599 6         5.766 6        38.554 6  36069389.215 6 145236475.741 6         4.664 6        36.014 6                                                                
C13  35674829.340 5 185768206.639 5       405.082 5        35.785 5  35674830.520 5 143647765.480 5       312.145 5        30.895 5  35674830.934 5 150951889.387 5       328.574 5        34.575 5
C16  36409222.551 5 189592379.739 5       249.301 5        34.082 5                                                                                                                                
C20  23065432.992 5 120107764.693 5     -1233.512 5        34.874 5                                                                  23065430.773 7  97597387.214 7     -1002.244 7        43.488 7
C32  26796866.797 7 139538311.811 7     -2114.410 7        42.278 7                                                                  26796871.695 6 113386331.148 6     -1718.572 6        38.676 6
C37  25121995.309 7 130816828.762 7       782.953 7        43.488 7                                                                  25121998.930 7 106299398.366 7       636.113 7        45.654 7
> 2020 08 27 07 55 47.0000000  0  7       0.000000000000
C06  36198444.430 7 188494795.551 7        73.334 7        42.704 7                                                                  36198440.738 5 153167451.915 5        57.801 5        35.901 5
C08  36069391.398 6 187822786.610 6         6.186 6        38.554 6  36069387.855 6 145236471.086 6         5.176 6        36.014 6                                                                
C13  35674751.320 6 185767801.568 6       404.721 6        36.014 6  35674752.605 5 143647452.212 5       314.023 5        31.242 5  35674753.086 5 150951560.205 5       330.066 5        34.727 5
C16  36409174.938 5 189592130.914 5       249.252 5        34.253 5                                                                                                                                
C20  23065669.918 5 120108998.185 5     -1233.639 5        35.154 5                                                                  23065667.539 7  97598389.509 7     -1002.316 7        43.507 7
C32  26797273.141 7 139540426.078 7     -2114.869 7        42.251 7                                                                  26797277.605 6 113388049.118 6     -1717.043 6        38.795 6
C37  25121845.102 7 130816046.187 7       782.436 7        43.304 7                                                                  25121848.785 7 106298762.457 7       635.965 7        45.666 7
> 2020 08 27 07 55 48.0000000  0  7       0.000000000000
C06  36198430.328 7 188494722.769 7        73.420 7        42.891 7                                                                  36198426.793 5 153167392.780 5        58.908 5        35.666 5
C08  36069390.426 6 187822781.015 6         4.787 6        38.676 6  36069386.602 6 145236466.748 6         4.822 6        36.124 6                                                                
C13  35674673.113 5 185767396.811 5       404.787 5        35.785 5  35674674.758 5 143647139.207 5       313.045 5        31.242 5  35674675.488 5 150951231.343 5       328.830 5        34.727 5
C16  36409127.102 5 189591882.417 5       249.006 5        34.727 5                                                                                                                                
C20  23065906.621 5 120110231.928 5     -1232.166 5        35.017 5                                                                  23065904.617 7  97599392.032 7     -1002.010 7        43.644 7
C32  26797679.195 7 139542540.492 7     -2114.549 7        42.407 7                                                                  26797683.723 6 113389767.288 6     -1718.240 6        38.736 6
C37  25121694.957 7 130815264.242 7       782.736 7        43.427 7                                                                  25121698.684 7 106298127.082 7       635.686 7        45.738 7
> 2020 08 27 07 55 49.0000000  0  7       0.000000000000
C06  36198416.199 7 188494650.086 7        72.563 7        42.891 7                                                                  36198412.824 5 153167333.633 5        60.262 5        35.666 5
C08  36069389.465 6 187822775.468 6         5.199 6        38.676 6  36069385.566 6 145236462.468 6         4.910 6        36.014 6                                                                
C13  35674595.453 6 185766992.103 6       405.121 6        36.014 6  35674596.957 5 143646826.269 5       313.699 5        31.242 5  35674597.770 5 150950902.481 5       329.500 5        35.017 5
C16  36409079.063 5 189591633.996 5       248.480 5        34.417 5                                                                                                                                
C20  23066143.512 5 120111465.778 5     -1234.430 5        35.017 5                                                                  23066141.535 7  97600394.579 7     -1002.512 7        43.625 7
C32  26798084.828 7 139544654.799 7     -2113.922 7        42.198 7                                                                  26798089.750 6 113391485.340 6     -1718.645 6        38.795 6
C37  25121544.641 7 130814482.729 7       781.000 7        43.199 7                                                                  25121548.488 7 106297492.036 7       634.734 7        45.761 7
> 2020 08 27 07 55 50.0000000  0  7       0.000000000000
C06  36198402.453 7 188494577.517 7        71.492 7        43.026 7                                                                  36198399.039 5 153167274.701 5        58.480 5        35.785 5
C08  36069388.199 6 187822770.073 6         4.891 6        38.736 6  36069383.906 5 145236458.320 5         4.242 5        35.901 5                                                                
C13  35674517.957 6 185766587.530 6       405.086 6        36.335 6  35674519.352 5 143646513.430 5       311.820 5        30.895 5  35674520.109 5 150950573.726 5       328.910 5        34.575 5
C16  36409031.438 5 189591385.746 5       246.785 5        34.575 5                                                                                                                                
C20  23066380.602 5 120112699.628 5     -1235.168 5        35.154 5                                                                  23066378.535 7  97601397.179 7     -1003.121 7        43.547 7
C32  26798491.234 7 139546769.063 7     -2114.445 7        42.225 7                                                                  26798495.676 6 113393203.357 6     -1718.414 6        38.911 6
C37  25121394.523 7 130813701.636 7       780.027 7        43.113 7                                                                  25121398.352 7 106296857.319 7       634.125 7        45.654 7
> 2020 08 27 07 55 51.0000000  0  7       0.000000000000
C06  36198388.383 7 188494505.038 7        72.641 7        42.891 7                                                                  36198385.293 5 153167215.817 5        58.787 5        35.785 5
C08  36069387.117 6 187822764.813 6         5.766 6        38.616 6  36069383.324 6 145236454.271 6         3.686 6        36.124 6                                                                
C13  35674440.320 6 185766183.063 6       404.477 6        36.124 6  35674441.430 5 143646200.668 5       312.514 5        31.242 5  35674442.379 5 150950245.067 5       328.592 5        35.017 5
C16  36408983.883 5 189591137.590 5       248.773 5        34.417 5                                                                                                                                
C20  23066617.301 5 120113933.490 5     -1232.633 5        35.017 5                                                                  23066615.406 7  97602399.845 7     -1002.482 7        43.625 7
C32  26798896.961 7 139548883.257 7     -2113.824 7        42.251 7                                                                  26798901.652 6 113394921.341 6     -1718.068 6        38.676 6
C37  25121244.410 7 130812920.960 7       781.215 7        43.157 7                                                                  25121248.598 7 106296222.981 7       634.256 7        45.678 7
> 2020 08 27 07 55 52.0000000  0  7       0.000000000000
C06  36198374.285 7 188494432.690 7        72.697 7        42.845 7                                                                  36198371.410 5 153167157.028 5        58.531 5        35.666 5
C08  36069386.504 6 187822759.720 6         5.725 6        38.554 6  36069382.391 6 145236450.320 6         3.756 6        36.014 6                                                                
C13  35674362.867 6 185765778.688 6       403.635 6        36.335 6  35674363.902 5 143645887.965 5       313.287 5        31.564 5  35674364.770 5 150949916.468 5       329.840 5        34.874 5
C16  36408935.980 5 189590889.563 5       248.654 5        34.253 5                                                                                                                                
C20  23066854.438 5 120115167.546 5     -1234.314 5        35.154 5                                                                  23066852.414 7  97603402.576 7     -1002.797 7        43.427 7
C32  26799303.016 7 139550997.404 7     -2113.377 7        42.433 7                                                                  26799307.680 6 113396639.248 6     -1717.541 6        38.676 6
C37  25121094.520 7 130812140.747 7       780.490 7        43.113 7                                                                  25121098.652 7 106295588.988 7       633.902 7        45.738 7
> 2020 08 27 07 55 53.0000000  0  7       0.000000000000
C06  36198360.480 7 188494360.317 7        72.721 7        42.680 7                                                                  36198357.426 5 153167098.227 5        58.100 5        35.544 5
C08  36069385.258 6 187822754.622 6         5.260 6        38.554 6  36069381.609 5 145236446.359 5         4.322 5        35.666 5                                                                
C13  35674285.137 5 185765374.229 5       404.439 5        35.901 5  35674286.066 5 143645575.267 5       312.018 5        31.564 5  35674287.195 5 150949587.831 5       329.037 5        34.575 5
C16  36408888.336 5 189590641.587 5       246.803 5        34.082 5                                                                                                                                
C20  23067091.402 5 120116401.408 5     -1233.021 5        35.418 5                                                                  23067089.398 7  97604405.229 7     -1002.508 7        43.387 7
C32  26799709.184 7 139553111.400 7     -2114.350 7        42.304 7                                                                  26799713.691 6 113398357.036 6     -1718.211 6        38.298 6
C37  25120944.563 7 130811360.832 7       779.713 7        42.981 7                                                                  25120948.789 7 106294955.242 7       633.588 7        45.654 7
> 2020 08 27 07 55 54.0000000  0  7       0.000000000000
C06  36198346.840 7 188494288.197 7        72.051 7        42.728 7                                                                  36198343.508 5 153167039.596 5        59.385 5        35.785 5
C08  36069384.066 6 187822749.791 6         3.984 6        38.364 6  36069380.559 5 145236442.631 5         3.051 5        35.785 5                                                                
C13  35674207.285 5 185764970.045 5       402.891 5        35.785 5  35674208.285 5 143645262.690 5       312.211 5        31.564 5  35674209.523 5 150949259.396 5       327.627 5        34.253 5
C16  36408840.781 5 189590393.787 5       248.418 5        34.253 5                                                                                                                                
C20  23067328.672 5 120117635.555 5     -1234.590 5        35.901 5                                                                  23067326.328 7  97605408.038 7     -1002.881 7        43.304 7
C32  26800115.199 7 139555225.416 7     -2114.063 7        42.330 7                                                                  26800119.750 6 113400074.842 6     -1717.705 6        38.736 6
C37  25120794.770 7 130810581.466 7       778.496 7        43.092 7                                                                  25120799.070 7 106294321.942 7       632.822 7        45.531 7
> 2020 08 27 07 55 55.0000000  0  7       0.000000000000
C06  36198332.883 7 188494216.287 7        71.939 7        42.704 7                                                                  36198329.656 5 153166981.172 5        58.395 5        35.544 5
C08  36069383.344 6 187822745.173 6         5.084 6        38.364 6  36069379.086 5 145236439.067 5         3.350 5        35.544 5                                                                
C13  35674129.578 5 185764566.008 5       403.873 5        35.544 5  35674130.973 5 143644950.258 5       312.195 5        31.242 5  35674131.859 5 150948931.124 5       326.813 5        34.253 5
C16  36408793.445 5 189590146.230 5       248.658 5        34.082 5                                                                                                                                
C20  23067565.805 5 120118869.828 5     -1234.408 5        35.544 5                                                                  23067563.195 7  97606410.987 7     -1002.855 7        43.448 7
C32  26800521.035 7 139557339.482 7     -2114.367 7        42.278 7                                                                  26800525.773 6 113401792.735 6     -1718.832 6        38.616 6
C37  25120644.801 7 130809802.645 7       778.326 7        42.751 7                                                                  25120649.461 7 106293689.068 7       633.102 7        45.581 7
> 2020 08 27 07 55 56.0000000  0  7       0.000000000000
C06  36198319.246 7 188494144.451 7        71.328 7        42.728 7                                                                  36198315.855 5 153166922.795 5        58.404 5        35.901 5
C08  36069382.230 6 187822740.702 6         4.277 6        38.232 6  36069378.617 5 145236435.626 5         1.859 5        35.901 5                                                                
C13  35674051.910 6 185764162.024 6       404.629 6        36.335 6  35674053.375 5 143644637.936 5       311.469 5        30.517 5  35674054.320 5 150948602.859 5       328.424 5        34.575 5
C16  36408745.648 5 189589898.829 5       247.734 5        33.905 5                                                                                                                                
C20  23067802.867 5 120120104.164 5     -1235.000 5        35.418 5                                                                  23067800.121 7  97607413.964 7     -1002.904 7        43.407 7
C32  26800926.875 7 139559453.444 7     -2113.926 7        42.117 7                                                                  26800931.652 6 113403510.479 6     -1717.826 6        38.096 6
C37  25120495.480 7 130809024.185 7       778.457 7        42.533 7                                                                  25120499.961 7 106293056.541 7       632.447 7        45.581 7
> 2020 08 27 07 55 57.0000000  0  7       0.000000000000
C06  36198305.426 7 188494072.733 7        71.826 7        42.583 7                                                                  36198302.020 5 153166864.505 5        58.918 5        35.785 5
C08  36069381.535 6 187822736.340 6         4.639 6        38.232 6  36069377.922 5 145236432.245 5         4.039 5        35.666 5                                                                
C13  35673974.484 6 185763758.240 6       404.170 6        36.538 6  35673975.949 5 143644325.596 5       312.828 5        31.242 5  35673976.680 5 150948274.691 5       328.449 5        34.082 5
C16  36408698.344 5 189589651.573 5       246.143 5        33.720 5                                                                                                                                
C20  23068040.246 6 120121338.542 6     -1234.619 6        36.635 6                                                                  23068037.168 7  97608417.009 7     -1003.211 7        43.448 7
C32  26801332.887 7 139561567.415 7     -2114.715 7        42.251 7                                                                  26801337.672 6 113405228.211 6     -1717.703 6        38.428 6
C37  25120346.293 7 130808246.212 7       777.998 7        42.728 7                                                                  25120350.652 7 106292424.370 7       631.613 7        45.808 7
> 2020 08 27 07 55 58.0000000  0  8       0.000000000000
C06  36198291.578 7 188494001.007 7        72.076 7        42.583 7                                                                  36198288.266 5 153166806.218 5        59.533 5        35.154 5
C08  36069380.637 6 187822732.065 6         3.854 6        38.096 6  36069376.668 6 145236428.909 6         3.334 6        36.014 6                                                                
C13  35673896.852 6 185763354.493 6       403.014 6        36.335 6                                                                  35673899.141 5 150947946.647 5       327.697 5        34.082 5
C16  36408650.617 5 189589404.264 5       246.979 5        33.527 5                                                                                                                                
C19  22514872.555 5 117240852.660 5       666.002 5        33.325 5                                                                                                                                
C20  23068277.379 6 120122572.884 6     -1233.430 6        36.014 6                                                                  23068274.125 7  97609420.016 7     -1003.045 7        43.387 7
C32  26801738.762 7 139563681.163 7     -2114.230 7        42.483 7                                                                  26801743.648 6 113406945.825 6     -1717.283 6        38.795 6
C37  25120197.117 7 130807468.559 7       777.623 7        42.433 7                                                                  25120201.367 7 106291792.453 7       631.877 7        45.581 7
> 2020 08 27 07 55 59.0000000  0  8       0.000000000000
C06  36198277.695 7 188493930.006 7        70.594 7        42.981 7                                                                  36198274.582 6 153166748.518 6        58.291 6        36.124 6
C08  36069379.992 6 187822728.462 6         3.465 6        38.554 6  36069376.305 5 145236426.114 5         2.482 5        35.544 5                                                                
C13  35673819.293 6 185762951.305 6       402.742 6        37.346 6                                                                  35673821.703 5 150947619.039 5       326.865 5        35.154 5
C16  36408603.324 5 189589157.704 5       244.813 5        33.720 5                                                                                                                                
C19  22514744.555 5 117240186.942 5       665.869 5        32.407 5                                                                                                                                
C20  23068514.406 6 120123807.848 6     -1234.191 6        36.124 6                                                                  23068511.230 7  97610423.543 7     -1003.703 7        43.346 7
C32  26802144.711 7 139565795.432 7     -2113.977 7        42.433 7                                                                  26802149.773 6 113408663.880 6     -1719.016 6        38.736 6
C37  25120047.941 7 130806691.907 7       776.338 7        42.304 7                                                                  25120052.242 7 106291161.382 7       630.654 7        45.702 7
> 2020 08 27 07 56  0.0000000  0  8       0.000000000000
C06  36198263.953 7 188493858.717 7        71.295 7        42.798 7                                                                  36198260.941 5 153166690.653 5        56.412 5        35.017 5
C08  36069379.449 6 187822724.624 6         3.365 6        38.027 6  36069375.266 6 145236423.163 6         2.713 6        36.335 6                                                                
C13  35673742.125 6 185762547.856 6       402.311 6        36.335 6                                                                  35673744.215 5 150947291.218 5       325.514 5        34.874 5
C16  36408556.027 5 189588910.821 5       246.373 5        34.082 5                                                                                                                                
C19  22514616.199 5 117239520.942 5       666.783 5        32.407 5                                                                                                                                
C20  23068751.938 6 120125042.536 6     -1234.115 6        36.538 6                                                                  23068748.414 7  97611426.814 7     -1003.334 7        43.366 7
C32  26802550.551 7 139567909.277 7     -2114.152 7        42.251 7                                                                  26802555.688 6 113410381.541 6     -1717.904 6        38.616 6
C37  25119898.941 7 130805915.297 7       776.217 7        42.558 7                                                                  25119903.199 7 106290530.330 7       630.475 7        46.025 7
> 2020 08 27 07 56  1.0000000  0  8       0.000000000000
