     2.11           OBSERVATION DATA    M (MIXED)           RINEX VERSION / TYPE
teqc  2018Jun8      root                20201007 09:46:22UTCPGM / RUN BY / DATE
Linux 2.4.21-27.ELsmp|Opteron|gcc|Linux 64|=+               COMMENT
teqc  2019Feb25     NOAA/NOS/NGS/CORS   20201002 03:54:11UTCCOMMENT
RTCM2RINEX 1.2.19   NRCan               20201001 00:17:16UTCCOMMENT
gfzrnx-1.11-7352    FILE MERGE          20201002 001709 UTC COMMENT
GPS -    L1 Phase aligned to CA and L2 aligned to P2        COMMENT
GLONASS- L1 Phase aligned to C1 and L2 aligned to P2        COMMENT
This data is subject to the Open Government Licence- Canada COMMENT
https://open.canada.ca/en/open-government-licence-canada    COMMENT
teqc.e edited: all SBAS satellites excluded                 COMMENT
teqc.e edited: all QZSS satellites excluded                 COMMENT
FRDN                                                        MARKER NAME
40146M001                                                   MARKER NUMBER
ACSOPS              NRCan                                   OBSERVER / AGENCY
618-02358           TPS NET-G3A         4.7 Nov,23,2017 p6  REC # / TYPE / VERS
383-0933            TPSCR.G3        NONE                    ANT # / TYPE
  1760543.5050 -4080069.4780  4560178.6470                  APPROX POSITION XYZ
        0.1000        0.0000        0.0000                  ANTENNA: DELTA H/E/N
     1     1                                                WAVELENGTH FACT L1/2
     8    C1    C2    L1    L2    P1    P2    S1    S2      # / TYPES OF OBSERV
    30.0000                                                 INTERVAL
teqc.w windowed: start @ 2020 Oct  1 10:00:00.000           COMMENT
teqc.w windowed:  end  @ 2020 Oct  1 11:00:00.000           COMMENT
  2020    10     1    10     0    0.0000000     GPS         TIME OF FIRST OBS
    18                                                      LEAP SECONDS
                                                            END OF HEADER
 20 10  1 10  0  0.0000000  0 17G01G03G06G11G17G19G22G24G28R01R07R08
                                R14R15R17R23R24
  22332708.492    22332709.345   117359196.2204   91448727.6964   22332708.387
  22332709.487          44.500          43.000
  21778597.066    21778597.521   114447312.9614   89179725.3584   21778596.342
  21778597.106          46.750          47.500
  22791590.817    22791592.132   119770633.9614   93327774.3374   22791590.737
  22791591.819          45.250          32.000
  24430903.309                   128385274.6244  100040468.5014   24430902.894
  24430900.474          38.000          16.250
  20929755.312    20929752.670   109986620.2464   85703863.0224   20929754.651
  20929752.281          48.750          42.250
  21568188.524                   113341606.6714   88318132.0354   21568187.078
  21568183.808          47.750          37.750
  22526321.554                   118376633.7224   92241531.5194   22526319.551
  22526316.279          46.750          35.250
  24278414.275    24278412.974   127583918.1044   99416045.3194   24278412.953
  24278413.117          38.250          20.250
  20624078.400                   108380266.1634   84452152.3424   20624077.178
  20624075.063          49.500          40.750
  22387757.397    22387756.454   119675410.601    93080866.801    22387757.260
  22387756.184          44.000          34.000
  24179619.328    24179614.291   129435377.628   100671957.031    24179616.790
  24179614.848          31.000          29.750
  22378403.654    22378399.382   119835341.081    93205259.179    22378404.210
  22378400.055          46.500          40.000
  20460523.749    20460521.177   109066099.217    84829177.788    20460523.231
  20460521.489          53.500          45.500
  20426812.896    20426809.986   109154707.603    84898096.521    20426813.297
  20426809.958          53.250          45.250
  20571730.681    20571726.773   110083523.277    85620507.727    20571730.590
  20571726.605          52.750          44.750
  21739287.544    21739286.575   116290566.889    90448221.362    21739288.057
  21739287.889          47.000          36.500
  19708925.609    19708922.232   105392511.786    81971946.508    19708925.270
  19708921.673          52.750          47.250
 20 10  1 10  0 30.0000000  0 16G01G03G06G11G17G19G22G24G28R01R08R14
                                R15R17R23R24
  22350751.454    22350750.907   117454009.1554   91522607.8864   22350750.727
  22350751.492          45.000          43.500
  21773051.551    21773052.199   114418172.6044   89157018.5974   21773051.120
  21773051.872          48.000          47.500
  22774368.654    22774371.101   119680133.3434   93257254.3854   22774368.868
  22774370.208          44.750          32.500
  24450777.374                   128489713.4924  100121849.3944   24450776.927
  24450774.154          38.000          14.500
  20923418.007    20923415.689   109953319.9004   85677914.6984   20923417.663
  20923415.544          49.000          42.250
  21554831.920                   113271416.2454   88263438.1954   21554830.129
  21554826.795          48.500          37.750
  22531665.691                   118404719.6124   92263416.6244   22531663.967
  22531660.589          48.000          35.250
  24275949.031    24275950.274   127570969.1604   99405955.2384   24275949.074
  24275949.302          38.500          21.000
  20629396.915                   108408217.1864   84473932.3554   20629396.220
  20629394.057          48.000          41.250
  22371392.579    22371392.157   119587938.220    93012832.754    22371393.009
  22371392.043          43.250          34.250
  22376715.447    22376711.216   119826302.346    93198229.042    22376716.544
  22376711.164          46.750          40.000
  20476946.957    20476945.047   109153645.619    84897269.400    20476946.709
  20476944.885          53.500          45.750
  20419963.653    20419960.129   109118105.252    84869628.019    20419964.139
  20419960.091          53.250          46.000
  20560489.533    20560486.675   110023372.616    85573723.886    20560490.140
  20560485.469          52.250          44.750
  21756175.212    21756173.643   116380900.733    90518481.003    21756174.872
  21756174.218          47.500          36.250
  19715750.031    19715746.328   105429004.524    82000329.748    19715749.621
  19715746.094          53.000          47.250
 20 10  1 10  1  0.0000000  0 16G01G03G06G11G17G19G22G24G28R01R08R14
                                R15R17R23R24
  22368835.030    22368835.435   117549040.7594   91596658.4734   22368834.455
  22368835.721          43.250          43.000
  21767620.903    21767621.567   114389634.6674   89134781.2364   21767620.668
  21767621.261          46.250          47.750
  22757199.235    22757200.058   119589902.1134   93186944.3534   22757198.645
  22757199.518          44.500          32.000
  24470660.959                   128594200.0004  100203267.3744   24470660.133
  24470657.630          39.000          13.500
  20917124.942    20917122.662   109920248.0464   85652144.4164   20917124.362
  20917122.253          49.750          42.750
  21541517.676                   113201452.7364   88208921.1744   21541516.358
  21541513.310          48.500          37.750
  22537115.022                   118433356.8394   92285731.3354   22537113.420
  22537110.075          47.250          35.500
  24273590.793    24273591.077   127558577.1464   99396299.1344   24273590.449
  24273591.761          37.500          21.250
  20634806.021                   108436639.8334   84496079.8664   20634804.766
  20634802.647          48.500          41.000
  22355122.560    22355121.221   119500960.042    92945183.067    22355122.658
  22355120.456          44.000          34.250
  22375172.512    22375168.294   119818038.892    93191801.903    22375172.863
  22375167.809          46.500          40.000
  20493484.967    20493483.306   109241803.395    84965836.539    20493485.330
  20493483.550          53.500          45.500
  20413261.743    20413259.071   109082293.338    84841774.306    20413262.051
  20413258.782          52.750          45.750
  20549309.550    20549306.397   109963545.790    85527191.915    20549309.649
  20549305.767          52.750          44.750
  21773083.391    21773081.479   116471341.248    90588823.579    21773082.367
  21773080.855          49.250          36.750
  19722639.270    19722635.681   105465843.014    82028981.895    19722638.791
  19722634.861          53.250          47.250
 20 10  1 10  1 30.0000000  0 16G01G03G06G11G17G19G22G24G28R01R08R14
                                R15R17R23R24
  22386960.714    22386960.699   117644288.2774   91670877.3064   22386959.742
  22386960.704          45.750          43.250
  21762305.169    21762306.106   114361700.0284   89113013.9814   21762304.900
  21762305.381          48.250          47.250
  22740079.696    22740081.385   119499941.1644   93116844.9264   22740079.571
  22740080.623          45.000          31.750
  24490551.919                   128698732.5154  100284721.1924   24490551.694
  24490550.336          39.250          14.750
  20910875.166    20910872.062   109887404.7814   85626552.2624   20910874.446
  20910872.289          50.250          43.000
  21528247.863                   113131716.6864   88154581.3854   21528246.040
  21528243.147          48.750          38.250
  22542669.235                   118462544.0504   92308474.6104   22542667.702
  22542664.461          47.500          35.250
  24271338.498    24271339.038   127546741.7024   99387076.7154   24271338.169
  24271338.898          38.000          20.000
  20640304.249                   108465533.7164   84518594.5684   20640303.121
  20640300.859          48.750          40.750
  22338944.144    22338942.511   119414480.153    92877920.932    22338944.137
  22338942.883          43.250          34.500
  22373774.123    22373770.756   119810551.591    93185978.433    22373774.780
  22373770.617          46.000          40.250
  20510136.969    20510135.544   109330568.634    85034876.139    20510137.361
  20510135.432          53.750          45.500
  20406708.342    20406705.722   109047273.304    84814536.498    20406708.756
  20406705.293          53.000          46.000
  20538190.915    20538187.192   109904042.912    85480911.888    20538190.501
  20538187.026          52.500          45.250
  21790008.852    21790007.032   116561886.918    90659247.976    21790008.457
  21790008.180          47.750          36.000
  19729592.086    19729588.515   105503025.443    82057901.560    19729591.911
  19729588.213          53.500          47.500
 20 10  1 10  2  0.0000000  0 16G01G03G06G11G17G19G22G24G28R01R08R14
                                R15R17R23R24
  22405126.168    22405125.959   117739749.4204   91745262.5894   22405125.323
  22405126.317          44.250          42.750
  21757104.371    21757105.577   114334370.1314   89091717.9644   21757104.128
  21757104.767          45.750          47.250
  22723011.966    22723013.946   119410251.8624   93046957.1474   22723011.819
  22723013.069          43.500          31.750
  24510452.561                   128803309.8944  100366209.9884   24510451.717
  24510449.524          39.000          13.750
  20904668.854    20904666.333   109854791.1504   85601139.0394   20904668.264
  20904666.096          49.000          42.500
  21515020.853                   113062209.3004   88100419.7884   21515019.432
  21515016.373          48.000          38.750
  22548328.165                   118492280.4794   92331645.8454   22548326.565
  22548323.040          47.500          35.250
  24269192.672    24269192.777   127535462.7884   99378287.9294   24269192.228
  24269192.499          37.750          21.250
  20645892.207                   108494899.0344   84541476.6244   20645891.221
  20645889.123          48.750          40.750
  22322861.046    22322858.786   119328502.618    92811049.535    22322860.425
  22322860.269          44.000          35.000
  22372520.893    22372517.466   119803841.117    93180759.171    22372521.794
  22372517.416          45.500          40.500
  20526902.625    20526900.606   109419937.892    85104385.536    20526902.679
  20526900.363          53.250          45.000
  20400303.223    20400300.612   109013047.268    84787916.248    20400303.483
  20400300.579          53.250          45.500
  20527131.961    20527127.892   109844864.016    85434883.855    20527131.568
  20527127.378          53.000          44.750
  21806954.518    21806953.376   116652535.916    90729752.738    21806955.048
  21806954.239          48.000          36.000
  19736609.439    19736606.009   105540550.727    82087087.892    19736609.494
  19736605.905          52.750          47.000
 20 10  1 10  2 30.0000000  0 16G01G03G06G11G17G19G22G24G28R01R08R14
                                R15R17R23R24
  22423331.253    22423331.845   117835421.8614   91819812.5324   22423331.089
  22423332.258          44.000          43.000
  21752019.152    21752019.974   114307646.1224   89070894.0524   21752018.776
  21752019.324          48.250          47.500
  22705997.473    22705999.058   119320835.4794   92977282.0464   22705996.964
  22705998.010          45.000          32.750
  24530361.277                   128907931.1204  100447733.0104   24530360.928
  24530359.520          39.500          13.250
  20898506.130    20898503.605   109822406.7934   85575904.4714   20898505.833
  20898503.685          50.250          42.750
  21501837.877                   112992931.4464   88046437.0494   21501836.167
  21501833.248          48.000          38.500
  22554090.875                   118522564.9864   92355244.1564   22554089.631
  22554086.012          47.250          34.750
  24267151.666    24267151.715   127524740.6644   99369933.0304   24267151.959
  24267152.265          38.250          21.500
  20651569.972                   108524735.5084   84564725.8134   20651568.865
  20651566.805          49.000          40.500
  22306871.829    22306869.226   119243032.025    92744572.407    22306871.431
  22306870.539          43.250          35.000
  22371414.074    22371410.276   119797908.348    93176144.786    22371414.534
  22371409.690          46.500          40.500
  20543780.943    20543778.665   109509907.539    85174361.906    20543780.743
  20543778.865          53.000          45.250
  20394046.938    20394044.056   108979616.970    84761914.904    20394047.476
  20394044.212          53.000          46.000
  20516132.684    20516129.510   109786009.307    85389107.978    20516132.840
  20516129.018          53.000          45.000
  21823920.394    21823917.974   116743287.347    90800337.156    21823919.117
  21823918.843          48.500          35.750
  19743690.596    19743686.947   105578417.225    82116539.605    19743690.676
  19743686.849          53.250          47.250
 20 10  1 10  3  0.0000000  0 16G01G03G06G11G17G19G22G24G28R01R08R14
                                R15R17R23R24
  22441576.567    22441577.694   117931302.4524   91894524.6684   22441576.657
  22441577.776          43.750          42.750
  21747048.953    21747049.608   114281528.5534   89050542.6974   21747048.664
  21747049.246          47.500          47.250
  22689033.771    22689035.083   119231692.5044   92907820.0094   22689033.527
  22689034.606          44.750          32.250
  24550278.335                   129012594.0464  100529288.5064   24550277.279
  24550275.703          39.750          13.500
  20892387.728    20892385.097   109790252.8834   85550849.4754   20892386.964
  20892384.831          50.500          42.500
  21488698.406                   112923883.3514   87992633.3324   21488697.134
  21488693.766          48.250          38.500
  22559957.930                   118553395.8184   92379268.1724   22559956.230
  22559953.011          48.000          35.250
  24265216.945    24265218.174   127514574.6544   99362011.4494   24265217.108
  24265217.592          36.500          20.750
  20657337.184                   108555042.2884   84588341.4754   20657336.225
  20657333.933          48.750          41.000
  22290978.157    22290976.689   119158071.974    92678492.377    22290978.215
  22290977.215          43.000          35.250
  22370451.121    22370446.262   119792753.226    93172135.235    22370451.673
  22370446.224          46.750          40.000
  20560770.494    20560768.947   109600473.079    85244801.757    20560770.723
  20560768.872          53.250          45.250
  20387939.781    20387937.799   108946983.602    84736533.381    20387940.435
  20387937.594          53.500          46.250
  20505195.353    20505191.502   109727478.151    85343583.748    20505194.908
  20505191.662          52.750          45.250
  21840903.699    21840902.588   116834139.386    90870999.828    21840904.212
  21840902.795          49.000          36.000
  19750835.824    19750831.983   105616622.711    82146254.972    19750835.437
  19750831.628          53.250          47.250
 20 10  1 10  3 30.0000000  0 16G01G03G06G11G17G19G22G24G28R01R08R14
                                R15R17R23R24
  22459861.483    22459862.536   118027389.9294   91969398.0054   22459861.621
  22459862.572          43.000          42.750
  21742194.652    21742195.737   114256019.6224   89030665.6054   21742194.509
  21742195.069          47.750          47.500
  22672122.949    22672124.007   119142825.1514   92838572.7194   22672122.776
  22672123.267          44.500          32.250
  24570203.644                   129117298.8094  100610876.5754   24570202.567
  24570200.731          40.500          13.250
  20886313.005    20886310.697   109758330.2844   85525974.7164   20886312.349
  20886310.373          49.500          42.250
  21475603.379                   112855067.0834   87939010.2644   21475601.701
  21475598.349          48.500          38.250
  22565928.401                   118584773.1374   92403718.0274   22565927.243
  22565923.929          46.750          35.250
  24263387.888    24263390.061   127504965.5494   99354523.8554   24263388.269
  24263389.402          37.000          19.750
  20663194.083                   108585820.5404   84612324.5184   20663193.014
  20663190.878          48.750          40.500
  22275181.267    22275179.506   119073627.342    92612813.223    22275180.636
  22275179.977          43.500          35.500
  22369633.299    22369629.217   119788377.387    93168731.788    22369634.293
  22369629.508          46.500          40.000
  20577871.613    20577869.837   109691631.943    85315703.072    20577871.943
  20577869.880          53.250          45.250
  20381983.203    20381979.779   108915149.848    84711773.801    20381983.447
  20381980.014          53.250          45.750
  20494317.460    20494314.329   109669271.849    85298312.178    20494317.784
  20494314.267          52.500          45.500
  21857906.789    21857904.200   116925091.620    90941740.438    21857906.797
  21857905.816          48.750          35.500
  19758043.147    19758040.190   105655166.858    82176233.750    19758042.886
  19758039.572          52.500          47.500
 20 10  1 10  4  0.0000000  0 16G01G03G06G11G17G19G22G24G28R01R08R14
                                R15R17R23R24
  22478184.946    22478186.133   118123680.8424   92044429.8664   22478184.665
  22478186.299          43.250          43.250
  21737456.559    21737457.634   114231119.3914   89011262.8224   21737456.188
  21737456.727          47.250          47.750
  22655264.395    22655265.506   119054233.4974   92769540.2734   22655264.107
  22655265.042          44.750          32.500
  24590135.749                   129222043.3014  100692495.5924   24590134.933
  24590133.675          39.000          13.500
  20880282.328    20880279.619   109726638.1494   85501279.5444   20880281.666
  20880279.503          49.500          42.500
  21462551.679                   112786482.4874   87885567.7264   21462550.302
  21462547.108          48.500          38.500
  22572003.445                   118616694.7054   92428591.9624   22572001.560
  22571998.476          47.750          35.250
  24261666.499    24261667.200   127495912.6204   99347469.6174   24261666.573
  24261666.215          37.250          20.750
  20669140.274                   108617068.7304   84636673.7434   20669139.305
  20669137.323          48.750          40.500
  22259480.109    22259479.674   118989701.393    92547537.496    22259480.118
  22259479.513          43.000          35.500
  22368962.414    22368958.507   119784780.485    93165934.186    22368962.998
  22368958.097          46.750          40.250
  20595082.672    20595081.718   109783379.519    85387062.287    20595083.246
  20595081.591          52.750          45.500
  20376175.777    20376172.634   108884116.380    84687636.653    20376175.934
  20376172.601          53.500          46.500
  20483501.241    20483497.644   109611389.160    85253292.306    20483501.283
  20483496.920          52.500          45.000
  21874928.143    21874925.074   117016141.526    91012557.004    21874926.875
  21874926.034          48.750          35.750
  19765313.919    19765310.743   105694047.211    82206474.016    19765314.067
  19765310.379          53.250          47.000
 20 10  1 10  4 30.0000000  0 16G01G03G06G11G17G19G22G24G28R01R08R14
                                R15R17R23R24
  22496547.588    22496548.147   118220173.8964   92119619.2484   22496547.017
  22496548.147          43.750          42.250
  21732834.101    21732835.359   114206830.1184   88992336.1174   21732833.994
  21732834.640          47.250          47.750
  22638458.555    22638459.730   118965919.9204   92700724.4864   22638458.468
  22638459.514          45.250          32.500
  24610074.848                   129326827.4574  100774145.5084   24610074.221
  24610073.542          37.500          13.250
  20874295.803    20874293.096   109695178.6504   85476765.6414   20874294.984
  20874292.924          49.250          42.750
  21449545.061                   112718132.0824   87832307.6614   21449543.444
  21449540.517          48.000          38.500
  22578181.169                   118649160.5974   92453890.0444   22578179.771
  22578176.464          47.500          35.250
  24260050.134    24260050.280   127487416.2674   99340849.0754   24260048.971
  24260049.798          37.750          20.500
  20675176.347                   108648788.0684   84661390.1034   20675175.244
  20675173.152          48.250          40.500
  22243878.823    22243877.014   118906299.605    92482669.426    22243878.488
  22243877.325          43.500          35.500
  22368435.850    22368431.978   119781964.365    93163743.868    22368436.485
  22368431.306          46.750          40.250
  20612405.063    20612403.356   109875713.120    85458877.297    20612405.189
  20612403.294          53.250          44.750
  20370518.189    20370515.634   108853886.071    84664124.184    20370518.308
  20370515.330          53.750          45.750
  20472745.418    20472741.804   109553831.431    85208525.188    20472744.712
  20472741.452          52.750          45.500
  21891967.536    21891964.457   117107288.878    91083449.351    21891966.857
  21891965.682          48.500          35.500
  19772647.849    19772644.379   105733263.284    82236975.400    19772647.709
  19772644.101          53.500          47.500
 20 10  1 10  5  0.0000000  0 16G01G03G06G11G17G19G22G24G28R01R08R14
                                R15R17R23R24
  22514947.604    22514948.449   118316867.2104   92194964.6534   22514947.347
  22514948.533          44.250          42.750
  21728329.059    21728329.627   114183153.2944   88973886.6384   21728328.483
  21728329.057          47.750          48.000
  22621706.617    22621707.853   118877886.0034   92632126.6394   22621706.362
  22621707.512          45.750          33.000
  24630022.221                   129431650.2594  100855825.5344   24630021.701
  24630020.030          36.750          14.000
  20868353.288    20868350.823   109663952.4794   85452433.5584   20868352.838
  20868350.896          50.250          42.500
  21436583.265                   112650017.0414   87779231.0004   21436581.554
  21436578.701          48.000          38.750
  22584462.491                   118682169.6944   92479611.4134   22584461.109
  22584457.665          47.000          34.750
  24258539.054    24258538.851   127479477.8304   99334663.2864   24258538.407
  24258539.246          37.250          21.250
  20681302.028                   108680978.4814   84686473.5274   20681301.008
  20681298.847          49.000          40.500
  22228375.380    22228373.803   118823426.186    92418212.345    22228375.277
  22228374.165          43.000          35.500
  22368056.114    22368051.519   119779929.689    93162161.325    22368056.966
  22368051.546          46.750          40.250
  20629835.851    20629834.021   109968629.332    85531145.449    20629835.836
  20629833.756          53.250          45.250
  20365012.018    20365009.142   108824460.919    84641237.949    20365012.121
  20365009.097          53.250          46.500
  20462049.815    20462046.171   109496599.122    85164011.160    20462049.362
  20462046.181          52.250          45.500
  21909023.123    21909021.809   117198533.050    91154417.030    21909023.395
  21909023.433          48.000          35.250
  19780043.896    19780040.775   105772814.315    82267737.311    19780043.597
  19780040.406          53.000          47.000
 20 10  1 10  5 30.0000000  0 16G01G03G06G11G17G19G22G24G28R01R08R14
                                R15R17R23R24
  22533385.275    22533386.457   118413757.0804   92270463.2384   22533384.862
  22533385.918          44.500          42.750
  21723939.778    21723940.683   114160088.6604   88955914.1934   21723939.480
  21723939.966          48.000          47.750
  22605007.026    22605008.961   118790131.6284   92563746.6194   22605006.954
  22605008.382          45.500          33.000
  24649976.769                   129536509.7804  100937534.1744   24649975.517
  24649973.829          36.250          14.500
  20862455.823    20862452.831   109632959.1074   85428282.8724   20862455.049
  20862452.784          49.250          42.500
  21423666.262                   112582137.1054   87726337.5434   21423664.517
  21423661.824          49.000          38.500
  22590847.483                   118715719.8304   92505754.3704   22590845.654
  22590842.074          47.750          35.000
  24257133.463    24257134.597   127472095.3194   99328910.7024   24257133.301
  24257134.174          37.000          21.000
  20687517.243                   108713638.7424   84711923.0714   20687516.057
  20687513.895          48.500          40.750
  22212971.985    22212970.754   118741084.199    92354168.583    22212971.230
  22212970.373          44.000          35.500
  22367823.133    22367818.224   119778675.847    93161186.105    22367823.190
  22367817.776          47.250          40.250
  20647374.823    20647373.146   110062123.299    85603862.971    20647374.820
  20647373.318          52.750          45.750
  20359655.817    20359653.280   108795841.067    84618978.053    20359656.092
  20359653.062          53.000          46.000
  20451415.121    20451411.787   109439691.173    85119749.434    20451414.895
  20451411.403          52.500          45.000
  21926097.902    21926096.647   117289871.593    91225458.093    21926097.864
  21926097.823          47.500          35.750
  19787502.112    19787498.926   105812697.280    82298757.389    19787501.913
  19787498.698          52.750          47.000
 20 10  1 10  6  0.0000000  0 16G01G03G06G11G17G19G22G24G28R01R08R14
                                R15R17R23R24
  22551859.143    22551860.554   118510841.0374   92346113.0594   22551859.209
  22551860.318          43.250          42.500
  21719666.948    21719668.565   114137637.1054   88938419.4704   21719667.054
  21719667.628          47.500          47.500
  22588361.548    22588363.353   118702657.7224   92495585.1404   22588361.139
  22588362.781          44.750          32.500
  24669936.882                   129641404.3534  101019270.0944   24669936.396
  24669935.333          34.750          14.750
  20856601.899    20856599.738   109602198.5764   85404313.6254   20856601.618
  20856599.475          49.750          43.250
  21410794.093                   112514492.8494   87673627.7344   21410792.472
  21410789.543          48.250          38.750
  22597334.238                   118749809.8474   92532318.0124   22597332.781
  22597329.444          47.500          35.000
  24255834.668    24255836.354   127465267.8974   99323590.6254   24255834.829
  24255835.092          37.250          21.750
  20693821.090                   108746768.2524   84737738.2694   20693820.306
  20693818.243          47.250          40.750
  22197667.505    22197667.568   118659277.546    92290541.191    22197667.978
  22197667.765          43.500          35.500
  22367733.148    22367729.521   119778202.936    93160818.279    22367734.458
  22367730.280          46.000          40.000
  20665022.125    20665020.003   110156190.897    85677026.653    20665021.798
  20665019.703          53.250          45.000
  20354451.649    20354448.470   108768028.274    84597345.892    20354451.672
  20354448.418          53.750          46.250
  20440841.126    20440837.601   109383107.456    85075739.874    20440840.693
  20440837.489          52.500          45.250
  21943190.794    21943188.264   117381303.179    91296571.514    21943190.366
  21943189.424          47.750          35.250
  19795022.283    19795018.926   105852910.708    82330034.487    19795022.245
  19795018.907          52.500          47.250
 20 10  1 10  6 30.0000000  0 16G01G03G06G11G17G19G22G24G28R01R08R14
                                R15R17R23R24
  22570370.972    22570371.168   118608117.7174   92421913.0514   22570370.468
  22570371.491          43.750          42.000
  21715512.247    21715512.959   114115800.5754   88921403.9954   21715511.719
  21715512.253          48.750          47.500
  22571769.413    22571771.027   118615466.4724   92427643.9014   22571769.430
  22571770.585          45.750          33.250
  24689903.783                   129746333.8564  101101033.1934   24689904.054
  24689902.895          32.750          13.750
  20850792.901    20850790.824   109571672.5344   85380527.0964   20850792.566
  20850790.573          49.750          43.000
  21397966.839                   112447086.6824   87621103.4414   21397965.256
  21397962.307          49.000          38.500
  22603923.923                   118784439.5584   92559302.1894   22603922.649
  22603919.060          46.750          35.000
  24254641.626    24254642.114   127458997.3874   99318704.5244   24254640.928
  24254641.720          37.500          21.000
  20700215.145                   108780367.9424   84763919.8254   20700214.189
  20700212.088          48.750          40.750
  22182465.804    22182463.775   118578011.149    92227334.012    22182466.045
  22182465.339          44.000          35.000
  22367790.386    22367787.747   119778512.468    93161059.003    22367792.018
  22367787.962          45.750          40.500
  20682775.981    20682774.448   110250829.518    85750634.455    20682775.769
  20682774.461          52.750          45.250
  20349398.065    20349395.064   108741024.783    84576343.160    20349398.167
  20349394.778          53.250          46.250
  20430327.617    20430324.676   109326848.991    85031983.290    20430327.287
  20430324.307          52.500          45.500
  21960301.400    21960298.197   117472827.177    91367756.820    21960300.151
  21960299.177          48.500          35.250
  19802604.055    19802600.874   105893454.254    82361568.348    19802603.904
  19802600.430          52.750          47.500
 20 10  1 10  7  0.0000000  0 16G01G03G06G11G17G19G22G24G28R01R08R14
                                R15R17R23R24
  22588917.843    22588919.145   118705584.2074   92497860.9424   22588917.725
  22588918.973          44.250          42.000
  21711473.853    21711475.000   114094579.5364   88904868.1174   21711473.473
  21711474.132          47.250          47.500
  22555231.530    22555233.628   118528558.4044   92359923.3364   22555231.213
  22555232.922          45.500          33.500
  24709878.929                   129851296.8664  101182822.4264   24709878.085
  24709877.018          33.000          12.750
  20845028.846    20845026.425   109541381.1594   85356923.4224   20845028.338
  20845026.180          49.750          43.000
  21385185.008                   112379918.8464   87568764.8614   21385183.660
  21385180.502          48.250          38.750
  22610616.176                   118819607.1794   92586705.5184   22610614.632
  22610611.390          46.250          34.750
  24253553.634    24253554.142   127453281.8194   99314250.8464   24253553.242
  24253554.098          37.000          21.000
  20706698.234                   108814436.6934   84790466.8944   20706697.056
  20706695.261          49.250          41.000
  22167364.599    22167363.126   118497288.823    92164549.972    22167364.637
  22167363.300          43.750          34.750
  22367994.969    22367990.731   119779604.122    93161908.034    22367995.708
  22367991.110          46.000          40.500
  20700636.430    20700634.369   110346034.485    85824682.753    20700636.435
  20700633.935          53.250          45.000
  20344496.388    20344493.472   108714831.541    84555970.637    20344496.451
  20344493.413          53.500          46.750
  20419875.158    20419871.617   109270915.476    84988479.444    20419875.415
  20419871.531          52.750          45.250
  21977427.553    21977423.977   117564441.801    91439012.617    21977426.936
  21977425.444          48.250          35.500
  19810247.592    19810244.128   105934325.594    82393357.158    19810247.339
  19810243.736          53.000          47.000
 20 10  1 10  7 30.0000000  0 16G01G03G06G11G17G19G22G24G28R01R08R14
                                R15R17R23R24
  22607501.055    22607501.746   118803238.6124   92573955.2594   22607500.767
  22607501.867          43.500          42.500
  21707552.807    21707553.752   114073975.2964   88888812.8704   21707552.558
  21707553.295          47.750          47.750
  22538747.970    22538749.657   118441935.0994   92292424.6714   22538747.936
  22538748.848          45.500          33.750
  24729856.948                   129956292.1394  101264636.8174   24729856.991
  24729856.873          31.750          12.250
  20839309.384    20839307.115   109511325.3174   85333503.2844   20839308.986
  20839306.800          50.000          43.000
  21372449.092                   112312990.5994   87516612.9784   21372447.852
  21372444.853          47.750          38.750
  22617410.906                   118855311.4914   92614527.0454   22617409.070
  22617405.619          47.500          34.750
  24252571.751    24252573.195   127448122.3224   99310230.4414   24252571.709
  24252572.313          37.000          20.750
  20713270.532                   108848974.7914   84817379.6864   20713269.573
  20713267.558          49.500          40.000
  22152366.651    22152364.558   118417114.750    92102192.363    22152366.682
  22152364.744          44.000          34.500
  22368344.713    22368341.758   119781478.740    93163366.080    22368346.218
  22368341.195          46.750          40.500
  20718601.785    20718600.408   110441802.527    85899168.993    20718601.943
  20718600.122          52.750          44.500
  20339747.120    20339743.717   108689450.327    84536229.686    20339747.196
  20339743.682          54.000          46.750
  20409483.196    20409479.615   109215307.178    84945228.549    20409483.149
  20409479.558          52.500          45.250
  21994570.190    21994567.949   117656146.650    91510338.588    21994569.472
  21994569.490          47.500          35.250
  19817951.965    19817948.023   105975523.797    82425400.198    19817951.723
  19817948.052          53.000          47.250
 20 10  1 10  8  0.0000000  0 16G01G03G06G11G17G19G22G24G28R01R08R14
                                R15R17R23R24
  22626119.111    22626119.850   118901078.1574   92650193.8324   22626119.087
  22626120.139          43.000          41.750
  21703749.090    21703750.650   114053988.3794   88873238.6434   21703749.240
  21703749.842          48.250          47.750
  22522318.205    22522319.871   118355597.2344   92225148.4154   22522318.208
  22522319.176          45.500          33.750
  24749845.249                   130061318.4404  101346475.3784   24749843.269
  24749843.510          34.000          12.250
  20833634.431    20833632.635   109481504.9754   85310266.6494   20833634.199
  20833632.216          49.500          43.000
  21359759.033                   112246302.3394   87464648.0984   21359757.583
  21359754.327          48.750          38.750
  22624306.437                   118891551.0604   92642765.6644   22624305.100
  22624301.897          47.000          34.750
  24251696.660    24251696.607   127443517.2634   99306642.0804   24251695.321
  24251696.186          37.000          20.500
  20719932.236                   108883981.5634   84844657.6754   20719931.334
  20719929.281          49.000          40.500
  22137471.871    22137470.126   118337492.637    92040264.061    22137471.642
  22137470.145          44.750          35.500
  22368841.358    22368837.813   119784136.569    93165433.273    22368841.653
  22368838.151          46.000          40.250
  20736672.765    20736671.564   110538129.473    85974089.934    20736672.678
  20736671.484          52.750          45.250
  20335148.945    20335145.946   108664882.090    84517121.047    20335149.035
  20335145.886          53.500          46.000
  20399152.421    20399148.924   109160023.684    84902230.278    20399152.011
  20399148.484          52.000          45.250
  22011729.236    22011727.371   117747939.606    91581733.084    22011729.327
  22011727.973          47.500          35.000
  19825716.937    19825713.514   106017047.135    82457696.117    19825716.605
  19825713.240          53.000          47.000
 20 10  1 10  8 30.0000000  0 16G01G03G06G11G17G19G22G24G28R01R08R14
                                R15R17R23R24
  22644773.230    22644773.167   118999101.4754   92726575.6254   22644772.408
  22644773.149          43.500          41.250
  21700063.714    21700064.550   114034620.6154   88858146.8814   21700063.762
  21700064.224          46.750          47.500
  22505943.650    22505945.022   118269546.8584   92158096.1904   22505943.323
  22505944.027          47.250          33.750
  24769836.349                   130166375.6814  101428338.0724   24769835.789
  24769834.604          35.500          12.500
  20828005.346    20828002.798   109451921.4594   85287214.5454   20828004.748
  20828002.614          49.750          43.250
  21347114.529                   112179856.2844   87412871.9494   21347113.012
  21347109.905          49.250          39.250
  22631304.523                   118928325.5564   92671421.1024   22631303.304
  22631299.988          46.750          34.750
  24250925.095    24250926.649   127439468.1464   99303486.9224   24250924.957
  24250925.380          37.500          21.250
  20726683.293                   108919457.5724   84872301.3034   20726682.063
  20726680.184          48.750          40.500
  22122680.981    22122680.102   118258427.515    91978768.987    22122680.631
  22122680.547          44.000          35.250
  22369485.049    22369480.583   119787578.277    93168110.140    22369486.118
  22369480.433          47.250          40.500
  20754847.674    20754845.728   110635012.133    86049443.103    20754847.857
  20754845.837          53.250          44.750
  20330703.699    20330700.906   108641129.221    84498646.597    20330704.289
  20330700.900          53.750          46.000
  20388882.430    20388878.815   109105066.204    84859485.569    20388882.736
  20388878.948          52.500          45.750
  22028906.746    22028903.283   117839820.701    91653196.107    22028905.722
  22028904.063          47.750          35.000
  19833542.657    19833539.345   106058895.171    82490244.579    19833542.512
  19833538.827          52.750          47.000
 20 10  1 10  9  0.0000000  0 16G01G03G06G11G17G19G22G24G28R01R08R14
                                R15R17R23R24
  22663460.259    22663460.909   119097304.9694   92803097.7954   22663460.063
  22663460.980          43.750          41.500
  21696496.443    21696496.926   114015871.5154   88843537.1864   21696495.822
  21696496.398          47.000          47.250
  22489623.575    22489624.441   118183783.7774   92091267.8134   22489623.515
  22489624.065          46.500          34.250
  24789834.271                   130271461.3194  101510222.8784   24789832.976
  24789832.195          34.250          12.250
  20822420.623    20822418.264   109422574.0764   85264346.4554   20822420.226
  20822418.118          49.000          43.000
  21334516.731                   112113652.4314   87361284.5224   21334514.919
  21334511.982          47.750          38.750
  22638404.315                   118965632.5314   92700491.4624   22638402.422
  22638399.238          47.500          34.500
  24250259.146    24250260.762   127435973.4494   99300763.7694   24250260.124
  24250260.165          37.000          22.000
  20733522.965                   108955401.1364   84900309.2644   20733521.944
  20733519.860          48.250          40.500
  22107995.389    22107993.160   118179921.849    91917709.050    22107994.880
  22107993.027          45.000          35.250
  22370272.735    22370269.407   119791802.981    93171396.027    22370273.254
  22370269.369          46.000          40.500
  20773125.883    20773124.391   110732445.495    86125224.598    20773126.019
  20773123.888          53.000          44.750
  20326411.365    20326408.331   108618191.545    84480806.168    20326411.599
  20326408.273          53.250          46.250
  20378673.065    20378669.525   109050433.319    84816993.312    20378673.029
  20378669.254          53.250          45.750
  22046098.325    22046095.855   117931787.323    91724725.671    22046098.204
  22046097.469          47.250          35.250
  19841428.151    19841425.232   106101065.158    82523043.446    19841428.188
  19841425.083          52.500          47.000
 20 10  1 10  9 30.0000000  0 16G01G03G06G11G17G19G22G24G28R01R08R14
                                R15R17R23R24
  22682181.580    22682182.287   119195687.0604   92879759.1394   22682181.469
  22682182.201          44.000          40.750
  21693046.197    21693047.119   113997742.6744   88829410.8254   21693045.996
  21693046.553          46.750          47.750
  22473357.662    22473359.493   118098309.8034   92024664.7224   22473357.717
  22473358.958          45.250          34.250
  24809835.301                   130376575.0614  101592129.6154   24809835.256
  24809834.492          33.250          10.750
  20816881.489    20816879.046   109393464.6354   85241663.7634   20816880.733
  20816878.783          49.750          43.000
  21321964.859                   112047692.2604   87309886.9844   21321963.146
  21321960.035          49.000          39.500
  22645604.180                   119003471.0994   92729976.0544   22645602.772
  22645599.518          46.750          34.500
  24249701.076    24249700.637   127433032.9904   99298472.5164   24249700.715
  24249700.797          38.250          22.250
  20740451.953                   108991812.7334   84928681.9224   20740450.901
  20740448.892          49.500          40.750
  22093414.458    22093411.972   118101980.506    91857088.003    22093414.022
  22093412.559          44.500          34.750
  22371208.253    22371204.771   119796811.582    93175291.598    22371209.133
  22371204.549          46.500          40.250
  20791506.679    20791505.410   110830426.390    86201431.934    20791506.657
  20791505.003          52.250          45.000
  20322271.693    20322268.751   108596071.163    84463601.424    20322271.947
  20322269.006          53.250          46.000
  20368524.441    20368520.949   108996125.795    84774754.128    20368523.944
  20368520.830          52.500          45.500
  22063306.382    22063304.177   118023839.126    91796321.496    22063305.683
  22063304.878          47.250          35.500
  19849374.898    19849371.149   106143556.122    82556091.965    19849374.455
  19849370.971          53.000          47.000
 20 10  1 10 10  0.0000000  0 16G01G03G06G11G17G19G22G24G28R01R08R14
                                R15R17R23R24
  22700937.514    22700937.161   119294246.2404   92956558.4664   22700936.678
  22700937.397          43.000          41.250
  21689714.786    21689715.950   113980235.6934   88815769.0224   21689714.548
  21689715.166          48.500          47.750
  22457148.197    22457150.107   118013126.7764   91958288.3564   22457147.861
  22457148.924          46.500          34.000
  24829845.389                   130481716.4264  101674057.9084   24829842.626
  24829841.071          34.500          11.750
  20811387.454    20811385.081   109364594.1024   85219167.2354   20811386.856
  20811384.866          49.750          42.750
  21309459.557                   111981977.4794   87258680.6474   21309458.104
  21309454.881          48.000          38.750
  22652905.710                   119041841.0914   92759874.7374   22652904.265
  22652901.014          46.250          34.500
  24249246.681    24249247.726   127430647.5024   99296613.6904   24249246.425
  24249246.339          38.250          23.000
  20747470.083                   109028692.6004   84957419.4684   20747468.953
  20747466.810          49.250          40.750
  22078939.835    22078938.403   118024608.131    91796909.490    22078939.761
  22078938.487          44.000          34.750
  22372290.279    22372286.435   119802604.843    93179797.444    22372291.253
  22372287.021          46.500          40.250
  20809989.831    20809988.356   110928951.508    86278062.571    20809989.967
  20809988.046          52.750          44.500
  20318285.921    20318282.723   108574770.137    84447033.952    20318286.245
  20318282.481          54.000          45.750
  20358436.862    20358433.150   108942144.665    84732768.807    20358436.648
  20358432.978          52.750          45.750
  22080529.049    22080527.780   118115975.481    91867983.078    22080528.984
  22080528.556          46.500          35.500
  19857380.619    19857377.370   106186367.630    82589389.795    19857380.431
  19857377.042          53.250          47.250
 20 10  1 10 10 30.0000000  0 15G01G03G06G17G19G22G24G28R01R08R14R15
                                R17R23R24
  22719725.205    22719725.842   119392978.9954   93033493.0584   22719724.769
  22719726.000          43.250          41.750
  21686501.676    21686502.659   113963350.1184   88802611.4304   21686501.393
  21686502.041          47.500          47.750
  22440994.494    22440995.555   117928234.6384   91892138.6334   22440993.955
  22440994.616          46.000          34.500
  20805938.704    20805936.573   109335961.8164   85196856.3624   20805938.356
  20805936.401          50.250          43.000
  21297001.136                   111916507.8874   87207665.3724   21296999.431
  21296996.636          48.000          38.750
  22660308.528                   119080739.9754   92790185.5464   22660306.433
  22660303.504          47.750          34.000
  24248898.695    24248898.661   127428815.1154   99295185.8724   24248897.690
  24248898.211          38.250          22.750
  20754576.699                   109066039.1824   84986520.6894   20754575.771
  20754573.649          49.000          40.500
  22064573.568    22064572.433   117947807.845    91737175.948    22064572.843
  22064573.149          45.500          35.500
  22373518.976    22373514.777   119809181.461    93184912.583    22373519.208
  22373514.743          47.000          40.250
  20828574.250    20828572.745   111028015.967    86355112.683    20828574.207
  20828572.285          52.750          44.500
  20314452.983    20314450.306   108554288.443    84431103.745    20314452.941
  20314450.357          53.500          46.250
  20348410.203    20348406.396   108888488.617    84691036.312    20348409.556
  20348406.157          53.000          45.750
  22097769.757    22097767.688   118208194.116    91939708.637    22097768.993
  22097768.146          46.500          35.750
  19865445.961    19865442.801   106229497.027    82622934.873    19865445.608
  19865442.613          53.000          47.000
 20 10  1 10 11  0.0000000  0 15G01G03G06G17G19G22G24G28R01R08R14R15
                                R17R23R24
  22738546.087    22738546.825   119491883.5234   93110561.4954   22738545.792
  22738546.736          43.500          41.250
  21683407.135    21683407.995   113947087.1984   88789939.0254   21683406.677
  21683407.279          48.000          47.750
  22424895.002    22424896.628   117843634.8394   91826216.7204   22424894.507
  22424895.928          46.500          34.250
  20800535.607    20800533.541   109307568.2714   85174731.5144   20800535.291
  20800533.102          50.250          43.500
  21284589.259                   111851284.9354   87156842.2964   21284587.763
  21284585.354          48.000          38.750
  22667810.524                   119120166.3874   92820907.4224   22667809.166
  22667806.145          46.750          34.250
  24248655.178    24248654.652   127427535.9694   99294189.1634   24248654.196
  24248654.675          39.250          21.500
  20761772.532                   109103852.7814   85015985.8204   20761771.436
  20761769.369          49.750          40.500
  22050314.046    22050311.725   117871583.552    91677890.408    22050313.728
  22050312.791          44.750          35.750
  22374893.215    22374889.329   119816542.119    93190637.534    22374893.670
  22374888.928          47.000          40.500
  20847258.664    20847257.259   111127616.037    86432579.371    20847258.586
  20847257.141          52.500          44.750
  20310773.748    20310770.358   108534627.523    84415811.912    20310773.936
  20310770.436          53.750          46.000
  20338443.903    20338439.762   108835158.166    84649557.072    20338443.844
  20338439.666          53.250          45.500
  22115023.530    22115021.254   118300494.274    92011497.623    22115023.453
  22115022.630          46.500          35.500
  19873570.759    19873567.237   106272943.404    82656726.490    19873570.375
  19873567.033          53.000          46.750
 20 10  1 10 11 30.0000000  0 15G01G03G06G17G19G22G24G28R01R08R14R15
                                R17R23R24
  22757398.877    22757400.696   119590957.8784   93187762.2684   22757399.126
  22757400.260          43.000          41.250
  21680431.431    21680431.867   113931447.9604   88777752.6014   21680430.670
  21680431.248          48.250          48.000
  22408852.017    22408853.414   117759328.8114   91760523.7224   22408851.799
  22408852.994          46.250          34.500
  20795178.543    20795176.104   109279415.0904   85152793.9584   20795177.838
  20795175.817          49.750          43.000
  21272225.540                   111786310.1894   87106212.6134   21272223.885
  21272220.697          49.500          39.500
  22675413.498                   119160119.5314   92852039.7374   22675412.080
  22675408.935          47.000          34.500
  24248517.552    24248516.626   127426810.0934   99293623.5354   24248516.638
  24248516.520          38.750          21.750
  20769056.879                   109142133.0734   85045814.6034   20769055.903
  20769053.777          49.500          40.250
  22036162.952    22036161.241   117795939.583    91619056.228    22036162.478
  22036162.648          44.750          35.250
  22376414.873    22376410.370   119824687.302    93196972.656    22376415.130
  22376409.562          47.000          40.250
  20866043.203    20866041.488   111227748.087    86510459.838    20866043.191
  20866041.297          52.250          44.250
  20307248.614    20307245.816   108515789.057    84401159.762    20307248.771
  20307245.419          54.000          46.250
  20328538.456    20328534.788   108782153.725    84608331.395    20328538.409
  20328534.481          52.750          45.500
  22132292.903    22132291.811   118392875.410    92083349.586    22132292.842
  22132292.196          46.000          35.500
  19881753.891    19881751.085   106316705.420    82690763.604    19881753.931
  19881750.962          52.750          47.000
 20 10  1 10 12  0.0000000  0 15G01G03G06G17G19G22G24G28R01R08R14R15
                                R17R23R24
  22776284.186    22776285.457   119690199.8994   93265093.6864   22776284.252
  22776285.507          43.000          41.250
  21677573.574    21677574.206   113916433.2464   88766052.8214   21677573.406
  21677573.958          48.000          48.000
  22392865.523    22392867.074   117675317.7354   91695060.5704   22392865.228
  22392866.251          46.250          35.000
  20789866.745    20789864.238   109251502.8144   85131044.1304   20789866.432
  20789864.231          50.500          43.250
  21259908.401                   111721584.3494   87055776.8824   21259906.805
  21259903.942          48.500          39.250
  22683116.306                   119200597.9514   92883581.3584   22683114.904
  22683111.771          47.000          34.500
  24248483.056    24248484.256   127426637.1544   99293488.7684   24248483.490
  24248483.569          38.500          21.500
  20776430.249                   109180879.7654   85076006.8154   20776429.181
  20776427.121          50.000          40.250
  22022122.059    22022119.098   117720880.095    91560676.629    22022121.781
  22022120.903          45.500          35.000
  22378082.312    22378077.878   119833617.021    93203917.984    22378083.008
  22378078.297          46.500          40.250
  20884927.608    20884925.762   111328408.415    86588751.172    20884927.464
  20884925.016          53.000          44.750
  20303876.660    20303874.018   108497774.010    84387148.044    20303877.278
  20303873.652          53.500          45.500
  20318694.303    20318690.935   108729475.471    84567359.408    20318694.284
  20318690.333          52.750          45.750
  22149578.666    22149576.099   118485336.434    92155263.665    22149577.518
  22149576.550          46.750          35.250
  19889997.162    19889993.452   106360782.211    82725045.533    19889997.053
  19889993.399          52.500          46.750
 20 10  1 10 12 30.0000000  0 15G01G03G06G17G19G22G24G28R01R08R14R15
                                R17R23R24
  22795201.080    22795201.259   119789607.0024   93342553.7304   22795200.474
  22795201.783          42.750          40.750
  21674835.555    21674836.536   113902043.2984   88754839.8834   21674835.044
  21674835.622          48.750          47.500
  22376934.388    22376936.142   117591602.2374   91629827.7264   22376934.235
  22376935.448          45.250          34.750
  20784601.067    20784598.851   109223831.5384   85109482.0884   20784600.677
  20784598.716          50.500          43.750
  21247639.363                   111657108.3544   87005535.8444   21247637.612
  21247634.859          49.000          39.500
  22690918.613                   119241600.1324   92915531.1064   22690917.181
  22690914.307          47.000          34.750
  24248555.228    24248556.363   127427016.0674   99293784.0274   24248555.420
  24248556.061          38.250          22.000
  20783892.092                   109220092.1004   85106561.8734   20783890.998
  20783889.099          49.500          40.250
  22008189.509    22008189.114   117646408.296    91502754.119    22008189.207
  22008188.944          44.750          35.250
  22379895.169    22379891.814   119843330.640    93211473.020    22379896.517
  22379892.283          46.500          40.500
  20903909.024    20903907.213   111429592.621    86667449.993    20903909.090
  20903906.926          52.250          44.250
  20300659.879    20300657.063   108480583.019    84373777.276    20300660.430
  20300657.035          53.250          46.500
  20308911.248    20308907.758   108677122.847    84526640.701    20308910.843
  20308907.275          53.250          45.500
  22166878.145    22166876.001   118577875.588    92227238.540    22166877.736
  22166877.264          47.000          35.750
  19898298.770    19898294.980   106405171.651    82759570.640    19898298.049
  19898294.623          53.250          47.000
 20 10  1 10 13  0.0000000  0 15G01G03G06G17G19G22G24G28R01R08R14R15
                                R17R23R24
  22814148.301    22814149.763   119889177.2714   93420140.9334   22814148.443
  22814149.624          43.250          41.250
  21672216.155    21672216.933   113888279.1574   88744114.5764   21672215.848
  21672216.438          47.250          48.000
  22361060.802    22361061.592   117508183.7594   91564826.3214   22361060.453
  22361061.610          47.500          34.750
  20779381.553    20779379.073   109196402.2664   85088108.6204   20779381.166
  20779379.055          50.000          43.000
  21235417.611                   111592883.9264   86955490.8214   21235416.273
  21235413.087          49.500          39.250
  22698820.309                   119283124.8004   92947887.9754   22698818.937
  22698816.063          46.250          34.250
  24248733.202    24248732.614   127427946.9284   99294509.3494   24248732.728
  24248732.882          39.000          21.750
  20791442.026                   109259769.9554   85137479.6674   20791441.491
  20791439.522          49.250          40.750
  21994369.513    21994367.048   117572528.619    91445292.157    21994368.872
  21994368.729          44.750          35.250
  22381856.587    22381851.658   119853828.525    93219638.013    22381857.366
  22381852.111          46.500          40.250
  20922988.368    20922987.094   111531297.066    86746553.422    20922988.094
  20922986.466          52.000          44.250
  20297597.722    20297594.564   108464217.512    84361048.537    20297597.736
  20297594.333          53.500          46.250
  20299188.165    20299185.156   108625096.531    84486175.783    20299188.246
  20299185.099          52.500          45.750
  22184191.321    22184189.440   118670492.341    92299273.751    22184191.490
  22184189.776          46.750          35.250
  19906657.412    19906653.883   106449872.721    82794338.136    19906657.546
  19906653.699          53.000          46.750
 20 10  1 10 13 30.0000000  0 15G01G03G06G17G19G22G24G28R01R08R14R15
                                R17R23R24
  22833126.193    22833127.205   119988908.0064   93497853.1674   22833126.007
  22833127.103          41.750          40.250
  21669716.128    21669717.093   113875141.0134   88733877.0574   21669715.817
  21669716.407          48.000          47.500
  22345243.533    22345244.660   117425062.8374   91500056.7784   22345243.135
  22345243.888          47.000          34.750
  20774208.137    20774205.951   109169215.0314   85066923.7554   20774207.531
  20774205.427          50.250          43.250
  21223243.997                   111528911.4264   86905642.1174   21223242.436
  21223239.331          49.500          39.250
  22706821.311                   119325170.3534   92980650.7384   22706820.138
  22706816.996          45.500          34.250
  24249014.248    24249016.080   127429429.0424   99295664.2394   24249014.230
  24249015.050          38.750          22.250
  20799081.452                   109299912.2574   85168759.3704   20799080.243
  20799078.266          49.250          40.250
