     3.03           OBSERVATION DATA    M: Mixed            RINEX VERSION / TYPE
Geo++ RINEX Logger  Geo++               20200927 145123 UTC PGM / RUN BY / DATE
************************************************************COMMENT
This file was generated by the Geo++ RINEX Logger App       COMMENT
for Android devices (Version 2.1.6). If you encounter       COMMENT
any issues, please send an email to android@geopp.de        COMMENT
Filtering Mode: MORE                                        COMMENT
************************************************************COMMENT
Geo++                                                       MARKER NAME
GEODETIC                                                    MARKER TYPE
Geo++               Geo++                                   OBSERVER / AGENCY
unknown             Xiaomi              Mi 10               REC # / TYPE / VERS
unknown             Mi 10                                   ANT # / TYPE
 -1573839.6681  5324767.6547  3128484.0804                  APPROX POSITION XYZ
        0.0000        0.0000        0.0000                  ANTENNA: DELTA H/E/N
G    8 C1C L1C D1C S1C C5Q L5Q D5Q S5Q                      SYS / # / OBS TYPES
R    4 C1C L1C D1C S1C                                      SYS / # / OBS TYPES
E   12 C1B L1B D1B S1B C1C L1C D1C S1C C5Q L5Q D5Q S5Q      SYS / # / OBS TYPES
C    4 C2I L2I D2I S2I                                      SYS / # / OBS TYPES
J    8 C1C L1C D1C S1C C5Q L5Q D5Q S5Q                      SYS / # / OBS TYPES
  2020     9    27    14    51   41.4433121     GPS         TIME OF FIRST OBS
 24 R01  1 R02 -4 R03  5 R04  6 R05  1 R06 -4 R07  5 R08  6 GLONASS SLOT / FRQ #
    R09 -2 R10 -5 R11  0 R12 -1 R13 -2 R14 -7 R15  0 R16 -1 GLONASS SLOT / FRQ #
    R17  4 R18 -3 R19  3 R20  2 R21  4 R22 -3 R23  3 R24  2 GLONASS SLOT / FRQ #
G L1C                                                       SYS / PHASE SHIFT
G L5Q -0.25000                                              SYS / PHASE SHIFT
R L1C                                                       SYS / PHASE SHIFT
E L1B                                                       SYS / PHASE SHIFT
E L1C +0.50000                                              SYS / PHASE SHIFT
E L5Q -0.25000                                              SYS / PHASE SHIFT
C L2I                                                       SYS / PHASE SHIFT
J L1C                                                       SYS / PHASE SHIFT
J L5Q -0.25000                                              SYS / PHASE SHIFT
 C1C    0.000 C1P    0.000 C2C    0.000 C2P    0.000        GLONASS COD/PHS/BIS
                                                            END OF HEADER
> 2020  9 27 14 51 41.4433121  2  0
> 2020  9 27 14 51 41.4433121  0 16
C07  36213508.229                        -203.973          36.800  
C09  35510292.555                         206.700          25.400  
C10  36568118.637                          65.850          19.600  
C28  25161605.602                        -484.206          22.700  
C37  24319040.398                       -1596.962          41.200  
E08                                                                  23487690.129                        1815.200          25.900  
E25                                                                  24456175.961                       -1354.767          43.100    24454250.993                       -1011.655          36.100  
G04  21557025.800                        2319.600          23.700  
G09  24658610.818                        3462.450          17.600  
G26  21175742.258                       -2170.316          39.200    21173388.887                       -1620.723          39.400  
J02  39980773.405                         -14.936          39.300    39978409.242                         -11.165          37.200  
R05  19738825.614                       -1336.600          22.500  
R06  22001286.145                        2890.500          21.700  
R14  23216983.236                       -2393.300          26.800  
R15  20575388.374                       -1079.225          41.900  
R24  23249195.935                        -573.894          33.900  
> 2020  9 27 14 51 42.4433121  0 15
C07  36213544.833                        -204.012          35.800  
C09  35510265.603                         204.563          29.700  
C27  23815431.369                        1909.950          25.700  
C28  25163594.455                        -483.168          41.800  
C37  24319348.614                       -1597.008          40.400  
E08                                                                  23487347.496                        1814.600          25.900  
E24                                                                  26569890.296                       -2141.800          16.000  
E25                                                                  24456435.910                       -1354.762          42.900    24454508.545                       -1011.687          36.500  
G04  21556618.112                        2322.600          24.700  
G26  21176159.299                       -2170.561          40.000    21173801.731                       -1620.827          40.000  
J02  39980771.037                         -14.828          39.000    39978412.569                         -11.102          37.600  
R05  19739152.718                       -1333.950          22.100  
R14  23217428.757                       -2394.800          27.700  
R15  20575586.866                       -1079.325          41.200  
R24  23249311.685                        -574.451          34.500  
> 2020  9 27 14 51 43.4433121  0 14
C07  36213584.338                        -203.593          36.200  
C09  35510223.265                         205.029          30.000  
C10  36568108.107                          60.250          21.200  
C27  23815069.751                        1908.200          25.100  
C28  25161793.234                        -483.211          23.000  
C37  24317767.141                       -1596.438          35.800  
E08                                                                  23486996.971                        1815.000          25.400  
E25                                                                  24456693.365                       -1354.301          43.100    24454766.598                       -1011.393          36.500  
E30                                                                  26655803.852                        1848.650          19.200  
G26  21176573.244                       -2170.195          39.700    21174214.777                       -1620.634          40.300  
J02  39980777.265                         -14.226          39.200    39978415.200                         -10.644          37.700  
R14  23217861.590                       -2397.250          26.800  
R15  20575787.959                       -1078.805          40.900  
R24  23249408.450                        -574.637          33.900  
> 2020  9 27 14 51 44.4433121  0 16
C07  36213627.459                        -204.101          35.700  
C09  35510186.941                         204.388          30.100  
C10  36568072.382                          65.400          22.600  
C27  23814703.655                        1908.100          25.500  
C28  25161886.120                        -484.273          22.900  
C37  24319962.472                       -1597.069          40.900  
E08                                                                  23486652.760                        1815.500          25.000  
E25                                                                  24456950.237                       -1354.874          42.600    24455023.471                       -1011.811          36.900  
G04  21555699.731                        2317.300          25.700  
G26  21176986.309                       -2171.021          39.700    21174627.542                       -1621.173          40.000  
J02  39980778.414                         -14.632          39.100    39978417.249                         -10.924          37.700  
R05  19739696.724                       -1339.100          21.700  
R06  21999647.692                        2893.850          19.600  
R14  23218305.533                       -2393.150          27.600  
R15  20575994.167                       -1079.577          41.000  
R24  23249525.920                        -576.059          33.900  
> 2020  9 27 14 51 45.4433121  0 16
C07  36213660.323                        -204.989          35.900  
C09  35510148.154                         203.471          30.400  
C27  23814343.791                        1902.850          25.400  
C28  25163872.132                        -485.524          41.500  
C37  24318380.654                       -1597.818          35.900  
E08                                                                  23486306.087                        1813.050          26.200  
E24                                                                  26571139.601                       -2144.600          17.900  
E25                                                                  24457208.845                       -1355.838          42.800    24455281.779                       -1012.475          36.500  
G04  21555249.929                        2316.900          26.100  
G26  21177400.209                       -2172.087          40.000    21175041.142                       -1621.989          40.100  
J02  39980783.698                         -15.406          38.800    39978420.733                         -11.478          37.800  
R05  19739941.241                       -1339.050          23.100  
R06  21999152.022                        2893.800          22.000  
R14  23218751.211                       -2391.800          27.400  
R15  20576198.812                       -1080.531          40.700  
R24  23249637.329                        -577.693          34.000  
> 2020  9 27 14 51 46.4433121  0 18
C07  36213704.204                        -205.210          36.400  
C09  35510110.192                         203.191          30.100  
C10  36568061.887                          66.200          23.400  
C27  23813968.262                        1903.900          26.200  
C28  25162073.189                        -485.946          23.600  
C37  24320574.046                       -1597.858          40.800  
E02                                                                  24143154.771                         517.500          15.800  
E08                                                                  23485971.929                        1812.550          25.900  
E25                                                                  24457465.578                       -1355.937          42.500    24455539.712                       -1012.557          37.100  
E30                                                                  26654729.044                        1847.350          19.700  
G04  21554825.234                        2315.350          27.500  
G26  21177810.736                       -2172.380          40.100    21175454.367                       -1622.217          40.000  
J02  39980787.106                         -15.348          38.800    39978423.243                         -11.410          37.600  
R05  19740191.679                       -1335.700          23.700  
R06  21998486.594                        2886.200          22.700  
R14  23219208.206                       -2399.300          26.300  
R15  20576393.189                       -1080.641          40.700  
R24  23249734.573                        -578.424          33.600  
> 2020  9 27 14 51 47.4433121  0 18
C07  36213741.712                        -204.835          36.800  
C09  35510061.659                         203.321          29.900  
C10  36568038.237                          61.900          22.800  
C27  23813614.841                        1902.600          27.300  
C28  25162168.856                        -486.292          23.500  
C36  24942369.120                        1606.950          16.500  
C37  24318993.574                       -1597.702          35.900  
E08                                                                  23485617.908                        1812.800          25.800  
E25                                                                  24457722.834                       -1355.727          42.500    24455797.867                       -1012.365          37.100  
G04  21554388.770                        2317.900          27.700  
G26  21178222.985                       -2172.323          40.000    21175868.115                       -1622.225          40.100  
J02  39980787.740                         -14.954          38.700    39978425.975                         -11.181          38.100  
R05  19740434.545                       -1343.650          22.400  
R06  21997998.566                        2892.400          21.800  
R14  23219677.415                       -2395.200          25.300  
R15  20576595.583                       -1080.483          41.100  
R17  22124010.330                        2342.900          14.200  
R24  23249835.937                        -578.895          33.600  
> 2020  9 27 14 51 48.4433121  0 17
C07  36213780.550                        -204.986          36.900  
C09  35510027.947                         203.199          30.200  
C10  36568030.907                          63.650          23.900  
C27  23813247.760                        1902.200          26.000  
C28  25162260.758                        -486.530          24.800  
C37  24319300.727                       -1597.712          35.700  
E02                                                                  24142954.409                         514.800          19.100  
E08                                                                  23485279.008                        1812.300          24.400  
E25                                                                  24457978.422                       -1355.832          42.300    24456055.553                       -1012.504          37.100  
G04  21553950.938                        2316.950          27.800  
G09  24654005.815                        3447.050          16.600  
G22  23928059.277                       -2263.900          15.700  
G26  21178635.964                       -2172.631          40.000    21176281.094                       -1622.406          40.300  
J02  39980793.301                         -14.929          38.800    39978428.838                         -11.146          38.000  
R14  23220097.289                       -2396.150          26.400  
R15  20576805.302                       -1080.674          41.100  
R24  23249968.610                        -579.828          33.500  
> 2020  9 27 14 51 49.4433121  0 15
C07  36213821.178                        -205.991          36.600  
C09  35509994.827                         203.850          29.100  
C10  36568033.163                          66.750          22.600  
C27  23812879.472                        1903.400          25.900  
C28  25162355.049                        -488.434          24.700  
C36  24941745.874                        1608.350          20.100  
C37  24319607.271                       -1598.701          35.900  
E25                                                                  24458238.799                       -1356.891          42.400    24456314.431                       -1013.221          37.000  
G04  21553499.908                        2315.650          28.200  
G26  21179048.035                       -2173.793          40.400    21176694.964                       -1623.296          40.400  
J02  39980790.160                         -15.777          39.100    39978432.592                         -11.763          38.200  
R06  21996985.589                        2886.900          22.500  
R14  23220559.426                       -2395.300          27.300  
R15  20577005.421                       -1081.731          41.200  
R24  23250063.201                        -581.486          33.600  
> 2020  9 27 14 51 50.4433121  0 17
C07  36213861.229                        -205.108          36.800  
C09  35509954.234                         203.029          30.000  
C10  36568005.760                          62.500          25.100  
C27  23812536.088                        1900.650          24.700  
C28  25164338.655                        -487.850          40.900  
C37  24319914.438                       -1597.616          35.600  
E08                                                                  23484584.724                        1811.150          25.000  
E25                                                                  24458495.600                       -1355.902          42.700    24456572.131                       -1012.609          37.200  
G04  21553066.586                        2316.264          29.100  
G26  21179464.626                       -2173.058          40.600    21177108.257                       -1622.704          40.300  
G31  23002479.179                       -1812.100          16.200  
J02  39980800.532                         -14.719          39.100    39978434.869                         -10.963          37.700  
R05  19741137.759                       -1343.450          19.000  
R06  21996453.936                        2885.850          23.100  
R14  23220983.512                       -2396.850          27.000  
R15  20577207.060                       -1080.897          40.900  
R24  23250172.205                        -581.296          34.000  
> 2020  9 27 14 51 51.4433121  0 18
C07  36213901.743                        -205.622          36.400  
C09  35509906.309                         202.365          30.100  
C10  36568006.402                          63.600          23.700  
C19  22914073.123                        -562.050          20.100  
C27  23812154.194                        1901.800          25.200  
C28  25162542.040                        -488.729          24.900  
C37  24322108.360                       -1598.240          40.600  
E02                                                                  24142648.098                         517.200          18.500  
E03                                                                  23613318.945                        -820.900          14.500  
E08                                                                  23484247.200                        1811.050          25.800  
E25                                                                  24458753.163                       -1356.534          42.500    24456831.493                       -1012.963          36.900  
G04  21552630.730                        2315.186          28.900  
G26  21179881.679                       -2173.792          40.700    21177522.012                       -1623.278          40.100  
J02  39980803.271                         -15.103          39.000    39978438.209                         -11.309          37.600  
R06  21995912.252                        2887.350          21.900  
R14  23221506.091                       -2392.800          26.400  
R15  20577409.461                       -1081.437          40.900  
R24  23250274.176                        -582.553          33.700  
> 2020  9 27 14 51 52.4433121  0 18
C07  36213938.975                        -209.548          36.300  
C09  35509878.486                         198.447          29.800  
C10  36567985.773                          59.200          22.200  
C27  23811789.404                        1898.550          26.500  
C28  25162635.333                        -494.092          22.700  
C36  24940802.405                        1608.000          20.000  
C37  24320528.212                       -1601.965          35.400  
E08                                                                  23483883.609                        1806.350          26.100  
E25                                                                  24459013.141                       -1360.386          42.700    24457089.373                       -1015.913          36.900  
G04  21552189.493                        2311.076          28.700  
G26  21180293.051                       -2177.838          40.800    21177935.783                       -1626.314          40.000  
G31  23003163.704                       -1812.950          20.200  
J02  39980804.528                         -18.836          39.000    39978440.964                         -14.074          37.700  
R05  19741666.392                       -1345.850          20.100  
R06  21995313.924                        2877.600          22.600  
R14  23221902.175                       -2400.150          26.000  
R15  20577618.474                       -1085.422          40.800  
R24  23250388.454                        -587.274          33.600  
> 2020  9 27 14 51 53.4433120  0 19
C07  36213952.509                        -211.856          36.800  
C09  35509802.082                         195.969          30.200  
C10  36567952.540                          58.250          23.700  
C19  22914262.693                        -561.350          20.900  
C27  23811396.420                        1895.300          26.000  
C28  25164592.122                        -496.029          41.100  
C37  24320806.463                       -1604.478          35.600  
E08                                                                  23483517.606                        1803.600          25.900  
E25                                                                  24459240.727                       -1362.863          42.400    24457318.158                       -1017.740          37.300  
G04  21551734.751                        2308.318          29.200  
G16  20079841.022                        -150.300          22.900  
G22  23930167.896                       -2261.950          17.500  
G26  21180680.727                       -2180.486          40.700    21178321.060                       -1628.289          40.200  
G31  23003463.840                       -1818.250          22.200  
J02  39980778.190                         -21.184          39.000    39978414.626                         -15.741          37.500  
R06  21994777.339                        2878.400          21.100  
R14  23222334.819                       -2401.200          26.700  
R15  20577788.800                       -1088.025          40.800  
R24  23250483.832                        -590.461          33.400  
> 2020  9 27 14 51 54.4433120  0 19
C07  36213991.017                        -213.708          36.400  
C09  35509777.634                         194.174          29.400  
C10  36567934.987                          60.550          21.800  
C27  23811045.198                        1894.350          24.000  
C28  25164686.392                        -498.358          41.000  
C37  24321114.784                       -1606.315          35.200  
E02                                                                  24142340.147                         509.300          18.700  
E08                                                                  23483173.579                        1801.500          25.400  
E25                                                                  24459499.882                       -1364.896          42.100    24457577.613                       -1019.271          36.900  
G04  21551262.713                        2306.169          30.200  
G16  20079815.675                        -152.400          23.100  
G26  21181094.275                       -2182.586          41.100    21178735.808                       -1629.846          40.200  
G31  23003791.348                       -1818.250          22.700  
J02  39980781.023                         -22.865          39.100    39978418.958                         -17.080          37.800  
R05  19742176.218                       -1352.400          22.400  
R06  21994201.573                        2879.350          22.600  
R14  23222799.932                       -2403.700          25.900  
R15  20577990.096                       -1089.957          40.800  
R24  23250573.605                        -592.980          33.000  
> 2020  9 27 14 51 55.4433120  0 17
C07  36214032.172                        -210.383          35.100  
C09  35509732.749                         193.550          28.300  
C10  36567925.477                          63.850          22.000  
C19  22914475.164                        -563.550          20.100  
C27  23810679.535                        1892.950          22.100  
C28  25162891.918                        -495.985          27.700  
C37  24321422.455                       -1603.135          36.900  
E08                                                                  23482833.997                        1804.850          25.600  
E25                                                                  24459757.188                       -1361.557          42.000    24457837.017                       -1016.790          37.000  
G04  21550820.603                        2309.550          28.100  
G26  21181510.171                       -2179.524          42.300    21179151.104                       -1627.584          39.800  
J02  39980787.702                         -19.510          38.100    39978423.239                         -14.564          38.000  
R05  19742469.198                       -1350.950          22.600  
R06  21993685.114                        2880.150          24.900  
R14  23223236.813                       -2396.800          25.700  
R15  20578194.338                       -1086.668          40.200  
R24  23250678.316                        -590.505          34.200  
> 2020  9 27 14 51 56.4433120  0 16
C07  36214072.968                        -206.478          33.800  
C09  35509677.311                         200.700          27.500  
C10  36567908.413                          60.600          24.400  
C28  25164879.266                        -492.008          41.100  
C37  24321730.066                       -1598.989          36.900  
E02                                                                  24142136.995                         511.700          19.500  
E08                                                                  23482485.962                        1808.200          26.600  
E25                                                                  24460014.433                       -1357.512          42.400    24458097.860                       -1013.682          36.900  
G04  21550385.927                        2312.750          25.300  
G26  21181926.606                       -2175.581          44.100    21179566.340                       -1624.598          38.800  
G31  23004484.576                       -1812.650          21.600  
J02  39980787.126                         -15.237          38.000    39978427.160                         -11.351          37.700  
R06  21993167.696                        2880.100          24.900  
R14  23223663.441                       -2393.500          26.800  
R15  20578396.721                       -1082.592          39.200  
R24  23250795.858                        -586.942          36.700  
> 2020  9 27 14 51 57.4433120  0 20
C07  36214116.436                        -205.983          34.900  
C09  35509656.024                         201.688          29.700  
C27  23809933.673                        1900.150          21.300  
C28  25164974.598                        -492.007          41.200  
C37  24322037.351                       -1598.464          37.200  
E02                                                                  24142051.852                         515.600          21.100  
E03                                                                  23614277.123                        -830.750          16.100  
E08                                                                  23482143.597                        1808.550          27.400  
E24                                                                  26575989.772                       -2146.600          13.700  
E25                                                                  24460273.152                       -1357.046          42.600    24458355.080                       -1013.404          36.900  
G04  21549956.623                        2313.700          26.500  
G09  24648027.473                        3443.900          16.000  
G22  23931916.226                       -2264.600          17.400  
G26  21182341.517                       -2175.307          44.100    21179979.752                       -1624.398          39.200  
G31  23004789.163                       -1817.100          22.000  
J02  39980789.522                         -14.602          38.000    39978429.856                         -10.956          38.400  
R06  21992584.298                        2880.000          25.000  
R14  23224129.317                       -2394.600          27.100  
R15  20578597.580                       -1082.194          38.900  
R24  23250898.685                        -587.323          36.300  
> 2020  9 27 14 51 58.4433120  0 15
C07  36214150.134                        -206.859          35.600  
C09  35509606.379                         200.791          29.800  
C10  36567901.037                          65.000          21.600  
C28  25163175.664                        -492.702          24.100  
C37  24324233.152                       -1598.956          41.200  
E02                                                                  24141936.553                         513.400          22.300  
E08                                                                  23481801.355                        1807.450          27.600  
E25                                                                  24460530.196                       -1357.739          42.600    24458613.323                       -1013.865          36.700  
G04  21549514.850                        2312.700          27.900  
G26  21182751.455                       -2176.156          43.100    21180393.587                       -1625.052          39.300  
J02  39980795.040                         -15.097          37.900    39978432.375                         -11.331          37.600  
R06  21991997.725                        2882.600          22.300  
R14  23224606.408                       -2395.400          26.900  
R15  20578816.550                       -1083.028          40.800  
R24  23251009.429                        -588.573          35.400  
> 2020  9 27 14 51 59.4433120  0 17
C07  36214196.123                        -209.304          37.400  
C09  35509581.318                         198.310          31.300  
C10  36567870.879                          62.600          23.000  
C27  23809204.520                        1898.050          24.700  
C28  25165161.611                        -496.139          40.800  
C37  24324538.462                       -1601.663          42.900  
E08                                                                  23481463.311                        1804.550          25.700  
E25                                                                  24460792.035                       -1360.286          42.800    24458870.965                       -1015.855          37.200  
G04  21549088.366                        2308.806          29.600  
G26  21183167.688                       -2178.971          42.000    21180806.822                       -1627.089          40.400  
G31  23005472.033                       -1812.500          20.600  
J02  39980796.360                         -17.626          40.200    39978435.195                         -13.166          37.500  
R05  19743424.301                       -1352.250          19.000  
R14  23225054.719                       -2395.250          25.900  
R15  20578998.645                       -1085.616          42.100  
R17  22118745.001                        2335.700          11.200  
R24  23251118.675                        -592.123          33.800  
> 2020  9 27 14 52  0.4433120  0 15
C07  36214231.965                        -209.939          37.300  
C09  35509540.113                         197.489          31.200  
C27  23808842.837                        1895.800          25.300  
C28  25165257.111                        -497.275          41.500  
C37  24322957.823                       -1602.264          33.500  
E02                                                                  24141744.674                         510.250          18.900  
E08                                                                  23481106.125                        1804.400          24.800  
E25                                                                  24461048.825                       -1361.045          43.300    24459130.453                       -1016.372          36.600  
G04  21548636.446                        2307.812          29.500  
G26  21183583.966                       -2179.791          42.400    21181221.602                       -1627.786          40.300  
G31  23005854.435                       -1811.500          22.100  
J02  39980801.923                         -18.117          40.500    39978438.359                         -13.512          36.700  
R14  23225476.993                       -2399.800          26.400  
R15  20579205.369                       -1086.385          42.300  
R24  23251238.759                        -593.415          33.800  
> 2020  9 27 14 52  1.4433120  0 21
C07  36214270.636                        -208.284          36.700  
C09  35509488.247                         199.193          30.300  
C10  36567861.151                          61.450          22.200  
C27  23808483.684                        1895.750          26.100  
C28  25163461.652                        -496.153          26.400  
C36  24938022.221                        1603.650          17.400  
C37  24325152.901                       -1600.575          43.300  
E02                                                                  24141655.934                         511.650          21.800  
E08                                                                  23480774.552                        1805.050          25.600  
E25                                                                  24461306.344                       -1359.416          42.800    24459389.171                       -1015.104          36.900  
E30                                                                  26649451.323                        1841.100          22.700  
G04  21548204.443                        2309.029          30.100  
G09  24645445.467                        3444.650          18.800  
G26  21183994.080                       -2178.345          42.300    21181636.512                       -1626.716          39.600  
G31  23006193.798                       -1808.200          24.800  
J02  39980804.020                         -16.332          41.000    39978441.955                         -12.233          36.900  
R05  19743891.243                       -1357.500          20.800  
R06  21990407.012                        2882.750          18.900  
R14  23225895.501                       -2396.650          26.700  
R15  20579405.928                       -1084.765          42.600  
R24  23251346.082                        -592.498          35.000  
> 2020  9 27 14 52  2.4433120  0 20
C07  36214306.338                        -206.637          36.300  
C09  35509442.105                         200.770          30.300  
C10  36567852.782                          63.300          21.600  
C19  22915229.897                        -563.200          23.500  
C27  23808112.867                        1899.350          26.500  
C28  25163556.712                        -494.953          27.100  
C37  24325459.915                       -1598.865          43.300  
E03                                                                  23615052.220                        -831.700          17.800  
E08                                                                  23480432.215                        1806.150          25.000  
E25                                                                  24461564.491                       -1357.837          43.300    24459647.319                       -1013.941          36.400  
G04  21547755.679                        2310.434          29.600  
G22  23934058.076                       -2264.650          17.700  
G26  21184411.117                       -2176.857          42.700    21182051.151                       -1625.608          39.200  
G31  23006527.792                       -1816.550          23.800  
J02  39980808.542                         -14.509          41.500    39978445.278                         -10.802          36.300  
R05  19744194.958                       -1353.350          22.100  
R06  21989953.152                        2875.400          22.100  
R14  23226405.474                       -2396.700          26.300  
R15  20579611.312                       -1083.071          43.400  
R24  23251461.228                        -591.559          35.700  
