     2.11           OBSERVATION DATA    M (MIXED)           RINEX VERSION / TYPE
teqc  2018Jun8      root                20201008 02:57:26UTCPGM / RUN BY / DATE
Linux 2.4.21-27.ELsmp|Opteron|gcc|Linux 64|=+               COMMENT
teqc  2013May1      NOAA/NOS/NGS/CORS   20131013 01:08:35UTCCOMMENT
Solaris x86 5.10|AMD64|cc SC5.8 -xarch=amd64|=+|=+          COMMENT
teqc  2013May1      NOAA/NOS/NGS/CORS   20131013 01:08:34UTCCOMMENT
0000.000      (antenna height)                              COMMENT
BIT 2 OF LLI FLAGS DATA COLLECTED UNDER A/S CONDITION       COMMENT
 SNR is mapped to RINEX snr flag value [0-9]                COMMENT
  L1 & L2: min(max(int(snr_dBHz/6), 0), 9)                  COMMENT
teqc edited: all SBAS satellites excluded                   COMMENT
teqc edited: all Galileo satellites excluded                COMMENT
teqc edited: all Compass satellites excluded                COMMENT
teqc edited: all QZSS satellites excluded                   COMMENT
Forced Modulo Decimation to 30 seconds                      COMMENT
WUHN                                                        MARKER NAME
21602M001                                                   MARKER NUMBER
Prof. Guigen Nie    WHU                                     OBSERVER / AGENCY
4918K35018          TRIMBLE NETR8       NP 4.16 / SP 3.59   REC # / TYPE / VERS
4852A62817          TRM59800.00     ENCL                    ANT # / TYPE
 -2267750.2660  5009156.1420  3221291.8980                  APPROX POSITION XYZ
        2.3612       -0.0022       -0.0094                  ANTENNA: DELTA H/E/N
     1     1                                                WAVELENGTH FACT L1/2
    11    L1    L2    L5    C1    P1    C2    P2    C5    S1# / TYPES OF OBSERV
          S2    S5                                          # / TYPES OF OBSERV
    30.0000                                                 INTERVAL
teqc.w windowed: start @ 2013 Oct  1 10:00:00.000           COMMENT
teqc.w windowed:  end  @ 2013 Oct  1 11:00:00.000           COMMENT
  2013    10     1    10     0    0.0000000     GPS         TIME OF FIRST OBS
    16                                                      LEAP SECONDS
                                                            END OF HEADER
 13 10  1 10  0  0.0000000  4  1
0000.000      (antenna height)                              COMMENT
 13 10  1 10  0  0.0000000  0 13G12G10G02R07R23G26G05R08R01R22G29G15
                                G04
 129289685.28914 100745135.98514                  24603016.750
  24603035.813                                          29.600          27.200

 120027549.537 5                                  22840442.422
                                                        34.400

 108017401.856 7  84169599.21043                  20555035.758
                  20555041.406                          42.600          21.300

 118315674.022 6                                  22102325.969    22102326.254
                                                        40.400

 105342234.692 8  81932875.314 5                  19692611.203    19692611.234
                  19692617.879                          53.200          35.400

 111483185.914 6  86869899.34643                  21214501.094
                  21214510.539                          41.600          19.000

 108610913.953 7  84632265.833 7                  20667946.398
  20667953.258    20667953.629                          43.500          42.800

 105260766.986 8  81869447.909 5                  19656660.234    19656659.988
                  19656664.531                          51.800          34.000

 115432179.198 7  89780385.498 4                  21593920.953    21593919.984
                  21593929.836                          47.100          24.400

 107729366.694 8  83789569.154 6                  20181329.063    20181328.160
                  20181333.965                          52.200          38.700

 118891431.402 6  92642824.585 5                  22624307.914
  22624317.500    22624318.566                          37.500          35.400

 125996039.959 5  98178921.865 5                  23976269.547
  23976290.262                                          32.000          32.100

 121444235.271 5                                  23110091.906
                                                        33.700

 13 10  1 10  0 30.0000000  0 13G12G10G02R07R23G26G05R08R01R22G29G15
                                G04
                                                  24617173.016
  24617193.719                                          26.800          27.700

 120112863.289 5                                  22856677.695
                                                        34.200

 108021649.002 6  84172908.70043                  20555844.500
                  20555849.281                          41.500          21.300

 118414726.691 6                                  22120829.977    22120829.793
                                                        40.200

 105292002.168 8  81893805.581 5                  19683221.156    19683220.719
                  19683227.152                          53.200          35.800

 111391137.505 6  86798173.36143                  21196984.867
                  21196994.039                          41.800          18.600

 108625112.262 7  84643329.475 7                  20670648.141
  20670655.160    20670655.176                          43.700          43.400

 105289383.953 8  81891705.562 5                  19662004.141    19662003.426
                  19662007.809                          52.100          33.800

 115362980.307 7  89726564.267 4                  21580976.055    21580974.965
                  21580984.875                          47.300          25.200

 107805740.009 8  83848970.565 6                  20195636.453    20195635.551
                  20195641.207                          52.400          38.100

 118812736.671 5  92581504.054 5                  22609333.141
  22609342.055    22609343.324                          35.700          35.700

 125883636.703 5  98091336.218 5                  23954878.453
  23954898.531                                          33.400          32.300

 121514266.764 5                                  23123417.773
                                                        34.400

 13 10  1 10  1  0.0000000  0 13G12G10G02R07R23G26G05R08R01R22G29G15
                                G04
                                                  24631327.539
  24631350.234                                          26.400          29.600

 120198205.689 5                                  22872917.734
                                                        34.900

 108026195.573 7  84176451.49043                  20556709.008
                  20556714.555                          42.800          21.500

 118513804.927 6                                  22139338.547    22139338.598
                                                        40.700

 105242424.563 8  81855245.254 6                  19673953.375    19673952.820
                  19673959.203                          53.400          36.000

 111299503.364 7  86726770.21243                  21179547.797
                  21179556.066                          42.100          18.300

 108639573.608 7  84654598.068 7                  20673399.445
  20673407.281    20673407.328                          43.200          44.000

 105318429.119 8  81914296.282 5                  19667428.102    19667427.621
                  19667431.930                          52.100          34.100

 115294193.717 7  89673063.702 4                  21568107.086    21568105.762
                  21568116.043                          46.600          26.300

 107882702.472 8  83908830.232 6                  20210053.695    20210052.910
                  20210058.828                          51.900          38.700

 118734404.057 6  92520465.719 5                  22594426.305
  22594435.605    22594436.926                          36.000          35.700

 125771332.151 5  98003827.429 5                  23933507.617
  23933527.016                                          33.300          30.700

 121584484.416 5                                  23136780.609
                                                        33.800

 13 10  1 10  1 30.0000000  0 13G12G10G02R07R23G26G05R08R01R22G29G15
                                G04
                                                  24645486.430
  24645507.777                                          26.400          28.900

 120283578.191 5                                  22889164.188
                                                        33.700

 108031045.022 7  84180230.28943                  20557632.141
                  20557637.656                          42.900          21.500

 118612909.016 6                                  22157852.914    22157852.145
                                                        40.300

 105193507.469 8  81817198.640 5                  19664808.125    19664807.805
                  19664814.141                          53.800          35.300

 111208289.291 7  86655694.40642                  21162190.102
                  21162198.531                          42.100          17.800

 108654299.117 7  84666072.516 7                  20676201.859
  20676209.082    20676209.328                          43.100          42.400

 105347902.932 8  81937220.382 5                  19672932.484    19672932.355
                  19672936.031                          52.400          32.800

 115225822.192 7  89619885.984 4                  21555316.352    21555315.027
                  21555325.699                          45.500          24.300

 107960254.769 8  83969148.666 6                  20224582.078    20224580.707
                  20224586.992                          51.900          39.300

 118656438.935 6  92459713.738 6                  22579589.758
  22579599.082    22579601.008                          36.800          36.300

 125659131.312 5  97916399.437 5                  23912155.297
  23912175.230                                          33.500          30.900

 121654891.051 5                                  23150178.109
                                                        32.600

 13 10  1 10  2  0.0000000  0 13G12G10G02R07R23G26G05R08R01R22G29G15
                                G04
 129587231.24214 100976985.13714                  24659642.602
  24659662.895                                          28.900          29.400

 120368977.814 5                                  22905415.445
                                                        31.800

 108036197.334 6  84184245.11043                  20558611.945
                  20558617.984                          41.600          20.400

 118712035.023 6                                  22176369.922    22176369.621
                                                        39.000

 105145253.108 8  81779667.496 5                  19655787.984    19655787.547
                  19655793.930                          53.500          35.500

 111117496.964 7  86584947.22843                  21144913.227
                  21144921.000                          42.800          19.000

 108669285.917 7  84677750.569 7                  20679054.211
  20679060.977    20679060.762                          44.400          42.700

 105377800.684 8  81960474.203 5                  19678515.219    19678514.973
                  19678519.477                          52.400          33.400

 115157864.782 7  89567030.324 4                  21542603.805    21542602.715
                  21542612.504                          46.900          26.600

 108038393.271 8  84029923.011 6                  20239220.602    20239219.465
                  20239225.203                          51.800          39.000

 118578842.397 6  92399248.975 6                  22564825.359
  22564832.859    22564835.051                          36.600          36.000

 125547035.381 5  97829053.232 5                  23890823.039
  23890843.535                                          33.400          31.100

 121725485.059 5                                  23163611.414
                                                        33.600

 13 10  1 10  2 30.0000000  0 12G10G02R07R23G26G05R08R01R22G29G15G04
 120454405.660 5                                  22921669.945
                                                        31.300

 108041655.862 7  84188498.49843                  20559650.539
                  20559656.188                          42.700          20.600

 118811183.178 6                                  22194892.313    22194891.777
                                                        37.900

 105097666.498 8  81742655.694 5                  19646891.680    19646891.359
                  19646897.652                          53.700          35.200

 111027131.843 7  86514532.93342                  21127717.016
                  21127725.422                          42.500          17.400

 108684535.494 7  84689633.363 7                  20681955.523
  20681962.637    20681962.957                          43.900          42.900

 105408122.188 8  81984057.603 5                  19684177.844    19684177.129
                  19684181.371                          52.200          32.700

 115090324.158 7  89514498.830 4                  21529968.875    21529967.906
                  21529977.641                          47.800          25.000

 108117118.045 8  84091153.360 6                  20253967.992    20253967.324
                  20253973.488                          51.000          38.700

 118501619.059 6  92339074.999 6                  22550129.023
  22550137.309    22550138.695                          36.900          36.000

 125435049.301 5  97741792.642 5                  23869510.914
  23869531.773                                          32.800          31.500

 121796268.589 5                                  23177082.133
                                                        34.000

 13 10  1 10  3  0.0000000  0 12G10G02R07R23G26G05R08R01R22G29G15G04
 120539856.095 5                                  22937932.266
                                                        32.800

 108047417.812 7  84192988.34143                  20560747.414
                  20560753.250                          42.600          21.500

 118910345.866 5                                  22213416.672    22213417.074
                                                        35.700

 105050746.323 8  81706162.232 6                  19638120.492    19638119.938
                  19638126.508                          53.700          36.300

 110937192.639 7  86444450.52142                  21110602.031
                  21110610.695                          42.400          17.400

 108700041.413 7  84701715.918 7                  20684906.492
  20684913.547    20684913.125                          42.800          42.900

 105438860.191 8  82007964.965 5                  19689917.758    19689917.277
                  19689921.285                          52.800          34.300

 115023195.741 7  89462287.944 4                  21517411.445    21517410.238
                  21517419.941                          47.800          27.900

 108196422.560 8  84152834.622 6                  20268824.617    20268823.363
                  20268829.422                          51.300          39.900

 118424767.094 6  92279190.428 6                  22535504.609
  22535513.191    22535514.270                          37.300          37.000

 125323170.869 5  97654615.908 5                  23848220.469
  23848240.652                                          34.300          31.800

 121867236.856 5                                  23190587.328
                                                        35.000

 13 10  1 10  3 30.0000000  0 12G10G02R07R23G26G05R08R01R22G29G15G04
 120625331.579 5                                  22954198.023
                                                        32.000

 108053488.209 6  84197718.55043                  20561901.992
                  20561908.316                          41.600          21.100

 119009525.250 5                                  22231945.984    22231944.039
                                                        35.800

 105004499.322 8  81670192.342 5                  19629475.000    19629474.211
                  19629480.676                          53.900          35.500

 110847686.361 7  86374705.48343                  21093568.773
                  21093577.910                          42.700          19.000

 108715806.457 7  84714000.395 7                  20687906.555
  20687913.301    20687913.367                          43.000          42.400

 105470015.985 8  82032197.280 5                  19695735.945    19695734.996
                  19695739.199                          51.700          32.900

 114956483.958 7  89410401.103 4                  21504931.406    21504929.965
                  21504940.137                          47.800          26.600

 108276308.506 8  84214968.056 6                  20283790.266    20283789.246
                  20283795.313                          51.200          38.900

 118348292.871 6  92219600.188 5                  22520952.078
  22520959.203    22520960.492                          36.800          35.200

 125211406.431 5  97567527.974 5                  23826952.164
  23826971.191                                          34.600          30.800

 121938393.822 5                                  23204126.648
                                                        33.900

 13 10  1 10  4  0.0000000  0 12G10G02R07R23G26G05R08R01R22G29G15G04
 120710829.726 5                                  22970466.656
                                                        31.800

 108059867.158 7  84202689.17043                  20563116.297
                  20563122.398                          42.400          21.300

 119108717.826 5                                  22250474.883    22250474.816
                                                        33.200

 104958927.719 8  81634747.785 5                  19620956.047    19620955.492
                  19620961.660                          53.900          35.900

 110758615.168 7  86305299.44943                  21076620.016
                  21076628.578                          42.600          19.000

 108731828.547 7  84726485.159 7                  20690955.609
  20690962.551    20690962.215                          42.300          43.000

 105501585.964 8  82056751.712 5                  19701631.570    19701630.738
                  19701635.063                          52.200          34.500

 114890188.152 7  89358837.795 4                  21492528.703    21492527.852
                  21492538.066                          46.900          27.400

 108356772.710 8  84277551.302 6                  20298863.781    20298862.762
                  20298868.898                          51.900          39.500

 118272197.985 5  92160305.505 5                  22506472.133
  22506479.211    22506480.777                          34.900          35.500

 125099757.642 5  97480530.146 5                  23805705.156
  23805724.223                                          34.400          31.900

 122009738.469 5                                  23217703.453
                                                        35.100

 13 10  1 10  4 30.0000000  0 12G10G02R07R23G26G05R08R01R22G29G15G04
 120796347.879 5                                  22986739.859
                                                        31.300

 108066554.470 7  84207900.03543                  20564388.961
                  20564394.242                          43.600          20.600

 119207918.977 5                                  22269003.414    22269003.465
                                                        32.200

 104914033.108 8  81599829.755 6                  19612563.148    19612563.180
                  19612569.402                          53.200          36.700

 110669980.601 7  86236233.61843                  21059753.047
                  21059762.109                          42.800          18.300

 108748104.669 7  84739167.874 7                  20694052.898
  20694059.660    20694059.262                          43.200          43.300

 105533565.778 8  82081624.938 5                  19707603.234    19707602.520
                  19707606.316                          52.000          32.700

 114824306.751 7  89307596.810 4                  21480204.758    21480203.199
                  21480213.105                          47.600          26.300

 108437811.530 8  84340581.444 6                  20314045.820    20314044.918
                  20314050.352                          52.100          39.600

 118196483.698 5  92101307.439 6                  22492064.555
  22492071.582    22492072.363                          35.200          36.100

 124988225.808 5  97393623.403 5                  23784480.234
  23784497.156                                          35.300          30.200

 122081269.016 5                                  23231316.031
                                                        32.400

 13 10  1 10  5  0.0000000  0 12G10G02R07R23G26G05R08R01R22G29G15G04
 120881890.073 5                                  23003018.984
                                                        32.600

 108073556.699 7  84213356.34243                  20565721.797
                  20565727.656                          43.100          21.500

 119307133.248 5                                  22287540.578    22287540.160
                                                        34.400

 104869824.250 8  81565445.111 5                  19604298.711    19604298.039
                  19604305.145                          52.400          35.100

 110581791.403 7  86167514.84742                  21042971.453
                  21042979.469                          43.300          17.800

 108764638.832 7  84752051.668 7                  20697199.672
  20697205.836    20697205.949                          43.100          43.000

 105565958.405 8  82106819.219 5                  19713652.547    19713651.832
                  19713655.762                          52.100          32.800

 114758845.865 7  89256682.872 4                  21467958.578    21467957.488
                  21467966.801                          47.200          25.800

 108519428.153 8  84404061.019 6                  20329334.625    20329333.957
                  20329339.461                          52.100          39.000

 118121157.257 5  92042611.573 5                  22477730.203
  22477737.730    22477738.059                          35.800          34.900

 124876818.852 5  97306814.002 5                  23763279.031
  23763297.023                                          35.600          30.800

 122152990.958 5                                  23244963.375
                                                        31.600

 13 10  1 10  5 30.0000000  0 12G10G02R07R23G26G05R08R01R22G29G15G04
 120967449.777 5                                  23019299.180
                                                        30.100

 108080869.409 7  84219054.54543                  20567113.641
                  20567118.563                          43.100          21.300

 119406351.476 4                                  22306077.531    22306075.586
                                                        28.600

 104826297.525 8  81531591.004 5                  19596161.961    19596161.172
                  19596167.746                          52.900          35.500

 110494044.659 7  86099140.82843                  21026273.063
                  21026281.590                          43.600          19.300

 108781424.138 7  84765131.135 7                  20700392.578
  20700400.418    20700400.230                          43.500          42.700

 105598754.793 8  82132327.536 5                  19719776.688    19719776.676
                  19719780.469                          52.100          32.800

 114693799.260 7  89206091.169 4                  21455790.359    21455789.152
                  21455798.547                          47.000          25.700

 108601614.411 8  84467983.640 6                  20344731.250    20344730.113
                  20344735.793                          51.600          38.400

 118046215.698 5  91984215.638 5                  22463469.250
  22463476.723    22463477.688                          35.400          35.200

 124765533.344 5  97220099.208 4                  23742101.188
  23742118.422                                          34.900          29.400

 122224898.028 5                                  23258646.680
                                                        32.000

 13 10  1 10  6  0.0000000  0 11G10G02R23G26G05R08R01R22G29G15G04
 121053021.448 5                                  23035585.891
                                                        30.800

 108088489.872 7  84224992.58143                  20568563.094
                  20568569.281                          43.600          20.900

 104783452.118 8  81498266.788 5                  19588152.547    19588152.461
                  19588158.953                          53.200          35.900

 110406739.527 7  86031110.93943                  21009659.195
                  21009667.887                          43.000          19.300

 108798455.239 7  84778402.134 7                  20703634.344
  20703641.098    20703640.973                          43.000          42.600

 105631948.476 8  82158144.856 5                  19725975.844    19725975.363
                  19725979.074                          53.000          32.800

 114629163.339 8  89155818.893 4                  21443700.008    21443698.566
                  21443707.379                          48.200          26.700

 108684364.106 8  84532344.467 6                  20360233.125    20360232.223
                  20360237.891                          52.000          38.500

 117971657.561 5  91926118.443 5                  22449280.555
  22449288.457    22449291.375                          34.600          35.000

 124654368.046 5  97133478.018 4                  23720947.281
  23720962.898                                          33.000          28.300

 122296986.401 5                                  23272366.820
                                                        32.200

 13 10  1 10  6 30.0000000  0 12G10G02R07R23G26G05R08R01R22G29G15G04
 121138623.719 5                                  23051873.516
                                                        31.300

 108096439.137 7  84231186.82943                  20570075.930
                  20570081.762                          42.600          21.800

 119604637.26414                                  22343152.086    22343149.906
                                                        29.400

 104741311.566 8  81465490.815 6                  19580274.789    19580274.703
                  19580281.379                          53.400          36.100

 110319899.058 7  85963443.09543                  20993134.828
                  20993142.598                          42.300          20.400

 108815750.410 7  84791878.895 7                  20706925.563
  20706932.328    20706932.012                          42.900          42.400

 105665556.978 8  82184284.811 5                  19732251.633    19732251.387
                  19732255.691                          52.300          32.100

 114564958.537 8  89105881.950 4                  21431689.594    21431687.449
                  21431695.602                          48.300          25.200

 108767695.101 8  84597157.423 6                  20375843.008    20375841.520
                  20375847.754                          51.500          38.100

 117897505.452 6  91868337.627 5                  22435171.102
  22435178.082    22435179.340                          36.800          35.900

 124543345.151 5  97046967.787 4                  23699817.391
  23699834.086                                          33.500          28.700

 122369275.597 5                                  23286119.695
                                                        31.500

 13 10  1 10  7  0.0000000  0 12G10G02R07R23G26G05R08R01R22G29G15G04
 121224231.938 5                                  23068163.188
                                                        30.100

 108104695.122 7  84237620.06943                  20571646.953
                  20571652.816                          42.900          20.600

 119703858.58814                                  22361685.305    22361684.652
                                                        28.300

 104699854.367 8  81433246.325 6                  19572524.789    19572524.586
                  19572531.492                          53.200          36.200

 110233502.788 7  85896121.39043                  20976693.484
                  20976701.578                          43.200          19.600

 108833285.455 7  84805542.578 7                  20710262.273
  20710268.945    20710268.406                          43.500          42.200

 105699553.608 8  82210726.644 5                  19738600.453    19738600.090
                  19738604.301                          52.000          33.000

 114501160.820 7  89056261.586 4                  21419752.898    21419752.281
                  21419760.719                          47.100          25.700

 108851581.058 8  84662402.031 6                  20391558.492    20391557.355
                  20391563.387                          51.600          38.500

 117823738.105 6  91810856.628 6                  22421132.352
  22421140.523    22421141.480                          37.100          36.100

 124432443.600 5  96960552.071 4                  23678714.508
  23678728.691                                          35.100          28.100

 122441742.287 5                                  23299911.219
                                                        31.800

 13 10  1 10  7 30.0000000  0 12G10G02R07R23G26G05R08R01R22G29G15G04
 121309852.87315                                  23084458.672
                                                        30.700

 108113266.863 7  84244299.35443                  20573278.344
                  20573284.000                          43.500          20.900

 119803075.18415                                  22380220.477    22380218.180
                                                        30.700

 104659091.773 8  81401542.097 6                  19564905.086    19564904.531
                  19564911.453                          53.300          36.200

 110147561.631 7  85829154.35543                  20960340.563
                  20960348.234                          42.500          19.000

 108851066.303 7  84819397.812 7                  20713645.758
  20713653.160    20713652.855                          43.100          43.000

 105733943.670 8  82237474.474 5                  19745022.406    19745021.809
                  19745025.891                          52.400          33.100

 114437778.484 7  89006964.316 4                  21407896.523    21407895.199
                  21407904.324                          46.400          25.500

 108936027.681 8  84728082.720 6                  20407377.531    20407376.980
                  20407382.895                          50.700          37.600

 117750365.856 6  91753683.516 6                  22407170.563
  22407178.352    22407178.473                          36.500          36.300

 124321673.968 5  96874239.090 5                  23657635.336
  23657649.711                                          33.200          30.500

 122514394.053 5                                  23313736.180
                                                        30.500

 13 10  1 10  8  0.0000000  0 12G10G02R07R23G26G05R08R01R22G29G15G04
 121395495.697 5                                  23100755.016
                                                        32.000

 108122165.705 6  84251233.52243                  20574971.203
                  20574977.238                          41.200          21.300

 119902295.586 5                                  22398755.117    22398753.172
                                                        31.800

 104619036.696 8  81370388.138 6                  19557416.570    19557416.016
                  19557423.438                          53.000          37.700

 110062088.974 7  85762552.35143                  20944074.313
                  20944082.641                          43.000          20.900

 108869102.005 7  84833451.616 7                  20717077.523
  20717085.023    20717084.707                          42.600          43.000

 105768734.794 8  82264534.258 5                  19751518.984    19751518.738
                  19751522.953                          52.000          33.700

 114374822.145 7  88957998.384 4                  21396119.266    21396117.473
                  21396126.684                          47.400          27.400

 109021042.925 8  84794205.652 6                  20423304.359    20423303.105
                  20423308.852                          50.800          38.300

 117677401.789 6  91696828.424 6                  22393286.219
  22393293.367    22393293.926                          36.600          36.700

 124211049.393 5  96788039.126 5                  23636581.664
  23636598.453                                          32.400          31.800

 122587240.907 5                                  23327597.875
                                                        30.800

 13 10  1 10  8 30.0000000  0 12G10G02R07R23G26G05R08R01R22G29G15G04
 121481150.49314                                  23117053.539
                                                        29.100

 108131384.402 7  84258416.93243                  20576725.945
                  20576731.523                          42.600          21.500

 120001508.697 5                                  22417287.281    22417286.746
                                                        31.800

 104579683.507 8  81339780.115 6                  19550059.992    19550059.672
                  19550066.773                          52.700          36.900

 109977079.370 7  85696311.18443                  20927897.555
                  20927906.309                          42.900          19.000

 108887383.000 7  84847696.570 7                  20720556.414
  20720563.480    20720563.363                          42.900          42.800

 105803915.677 8  82291897.208 5                  19758088.945    19758088.348
                  19758093.039                          52.600          33.800

 114312283.445 7  88909357.245 4                  21384420.094    21384418.184
                  21384428.188                          47.800          26.800

 109106616.292 8  84860762.663 6                  20439334.938    20439333.801
                  20439339.973                          50.000          37.400

 117604839.544 6  91640286.449 5                  22379478.000
  22379486.223    22379486.117                          36.700          35.900

 124100563.646 5  96701947.277 5                  23615556.031
  23615572.633                                          32.300          31.400

 122660274.486 5                                  23341496.203
                                                        30.300

 13 10  1 10  9  0.0000000  0 13G10G02R07R23G26G05R08R01R22G29G15R24
                                G04
 121566820.80315                                  23133355.063
                                                        30.500

 108140928.695 7  84265854.02343                  20578542.109
                  20578548.102                          43.100          20.900

 120100716.916 5                                  22435820.555    22435819.199
                                                        34.400

 104541039.346 8  81309723.558 6                  19542836.047    19542835.727
                  19542842.289                          53.700          36.700

 109892540.287 7  85630436.65943                  20911809.664
                  20911818.566                          42.300          20.400

 108905912.876 7  84862135.438 7                  20724082.711
  20724089.762    20724089.465                          43.000          43.500

 105839488.195 8  82319564.720 5                  19764731.391    19764731.027
                  19764736.000                          51.600          34.300

 114250166.864 8  88861044.425 4                  21372799.500    21372798.410
                  21372807.660                          48.300          27.800

 109192749.419 8  84927755.050 6                  20455470.648    20455469.160
                  20455475.395                          49.200          37.600

 117532685.933 6  91584062.904 6                  22365746.516
  22365754.781    22365755.590                          37.100          37.200

 123990223.987 5  96615969.259 5                  23594559.047
  23594573.535                                          32.200          31.600

 121470333.27516  94476957.82413                  22715565.664    22715565.336
                  22715572.242                          36.500          23.600

 122733498.92215                                  23355430.211
                                                        30.500

 13 10  1 10  9 30.0000000  0 13G10G02R07R23G26G05R08R01R22G29G15R24
                                G04
 121652492.64915                                  23149659.813
                                                        31.500

 108150786.927 7  84273535.78443                  20580417.172
                  20580423.348                          42.600          20.100

 120199905.025 5                                  22454346.016    22454344.895
                                                        32.600

 104503094.361 8  81280210.796 6                  19535742.969    19535741.707
                  19535748.605                          53.000          36.000

 109808461.932 7  85564921.12443                  20895810.875
                  20895819.199                          43.500          19.600

 108924676.676 7  84876756.583 7                  20727652.789
  20727660.734    20727660.703                          43.400          42.200

 105875436.481 8  82347524.473 5                  19771444.914    19771444.434
                  19771448.961                          51.300          33.300

 114188459.019 7  88813049.532 4                  21361255.992    21361254.551
                  21361264.168                          47.500          27.800

 109279426.774 8  84995170.745 6                  20471707.789    20471706.652
                  20471712.723                          49.900          36.800

 117460930.837 6  91528149.890 6                  22352091.648
  22352100.461    22352100.527                          37.000          36.400

 123880020.027 5  96530096.956 5                  23573587.930
  23573601.625                                          32.500          31.800

 121350295.544 6  94383595.358 4                  22693117.055    22693116.258
                  22693123.723                          37.900          24.400

 122806901.18215                                  23369398.227
                                                        30.300

 13 10  1 10 10  0.0000000  0 12G10G02R07R23G26G05R08R01R22G29G15R24
                                                  23165964.898
                                                        28.600

 108160970.144 7  84281470.73843                  20582355.914
                  20582361.648                          42.400          21.700

 120299080.719 5                                  22472870.383    22472872.195
                                                        32.500

 104465860.801 8  81251251.370 6                  19528781.797    19528781.242
                  19528787.840                          53.800          36.200

 109724857.116 7  85499774.58943                  20879900.711
                  20879909.543                          42.500          19.600

 108943683.188 7  84891566.878 7                  20731269.773
  20731276.520    20731276.484                          42.100          42.500

 105911767.792 8  82375782.193 5                  19778229.977    19778229.379
                  19778233.387                          51.700          33.900

 114127170.295 7  88765380.604 4                  21349789.789    21349789.172
                  21349798.402                          47.100          26.600

 109366656.054 8  85063015.698 6                  20488049.227    20488047.738
                  20488053.711                          50.200          36.700

 117389586.864 6  91472557.209 6                  22338515.484
  22338523.781    22338524.258                          37.000          36.000

 123769964.01315  96444339.85715                  23552642.359
  23552658.750                                          31.000          33.100

 121230452.831 6                                  22670705.695    22670705.250
                                                        38.600

 13 10  1 10 10 30.0000000  0 12G10G02R07R23G26G05R08R01R22G29G15R24
 121823869.00514                                  23182274.461
                                                        28.300

 108171482.578 7  84289662.25643                  20584356.992
                  20584361.867                          42.900          21.800

 120398245.145 5                                  22491397.469    22491398.223
                                                        32.600

 104429344.590 8  81222849.885 6                  19521955.805    19521955.367
                  19521962.180                          53.800          36.600

 109641731.825 7  85435001.68243                  20864082.508
                  20864090.723                          43.100          20.900

 108962933.986 7  84906567.508 7                  20734933.172
  20734940.430    20734940.578                          43.300          42.600

 105948482.397 8  82404338.005 5                  19785085.961    19785085.715
                  19785090.324                          51.500          34.000

 114066303.622 7  88718039.957 4                  21338404.164    21338402.371
                  21338411.176                          47.300          28.200

 109454437.693 8  85131290.275 6                  20504493.820    20504493.035
                  20504498.527                          50.800          36.800

 117318658.599 6  91417288.501 6                  22325017.984
  22325026.258    22325027.406                          37.200          37.200

 123660061.626 5  96358702.447 5                  23531729.570
  23531743.855                                          32.000          33.600

 121110811.808 6                                  22648332.711    22648331.211
                                                        38.300

 13 10  1 10 11  0.0000000  0 12G10G02R07R23G26G05R08R01R22G29G15R24
 121909563.76114                                  23198578.742
                                                        29.400

 108182315.035 7  84298103.12643                  20586417.875
                  20586423.016                          43.500          21.700

 120497385.319 6                                  22509922.156    22509921.387
                                                        36.600

 104393537.428 9  81194999.870 5                  19515262.789    19515261.883
                  19515267.984                          54.500          35.800

 109559078.502 7  85370596.54643                  20848354.609
                  20848363.121                          42.000          21.100

 108982417.448 7  84921749.450 7                  20738640.922
  20738648.105    20738647.484                          43.400          42.700

 105985566.822 8  82433181.458 5                  19792011.266    19792010.668
                  19792014.996                          52.300          34.400

 114005848.266 7  88671019.178 4                  21327094.016    21327093.633
                  21327102.477                          47.100          24.200

 109542758.344 8  85199984.056 6                  20521039.367    20521038.348
                  20521043.703                          51.000          36.300

 117248138.683 6  91362337.960 6                  22311598.742
  22311607.879    22311607.340                          36.900          37.300

 123550304.72515  96273178.42915                  23510842.703
  23510857.164                                          31.600          32.500

 120991365.891 6                                  22625994.133    22625993.453
                  22626004.289                          38.400          21.900

 13 10  1 10 11 30.0000000  0 12G10G02R07R23G26G05R08R01R22G29G15R24
 121995270.70314                                  23214885.625
                                                        28.000

 108193481.652 7  84306804.41043                  20588542.594
                  20588547.828                          44.000          22.200

 120596512.542 6                                  22528438.188    22528436.949
                                                        37.400

 104358455.646 9  81167714.030 6                  19508704.672    19508703.883
                  19508710.348                          54.000          36.700

 109476913.265 7  85306571.78743                  20832718.813
                  20832727.070                          43.400          19.900

 109002145.656 7  84937122.099 7                  20742394.703
  20742402.262    20742402.051                          42.600          42.900

 106023031.698 8  82462320.834 5                  19799007.000    19799006.285
                  19799011.098                          51.700          34.300

 113945817.724 8  88624328.886 4                  21315864.086    21315863.938
                  21315872.328                          48.000          28.600

 109631629.212 8  85269105.776 6                  20537687.766    20537687.098
                  20537692.543                          50.900          36.800

 117178042.571 6  91307717.636 6                  22298261.250
  22298268.410    22298269.004                          37.100          37.300

 123440709.174 5  96187780.121 5                  23489984.883
  23490001.152                                          30.500          32.900

 120872132.410 6                                  22603697.563    22603696.648
                                                        39.100

 13 10  1 10 12  0.0000000  0 12G10G02R07R23G26G05R08R01R22G29G15R24
 122080975.84514                                  23231198.453
                                                        28.900

 108204970.154 7  84315756.49343                  20590728.852
                  20590734.375                          43.400          22.000

 120695611.195 6                                  22546948.008    22546948.293
                                                        36.800

 104324088.128 8  81140983.754 6                  19502279.336    19502278.547
                  19502285.180                          53.800          36.500

 109395225.689 7  85242919.17743                  20817174.078
                  20817182.238                          42.900          19.600

 109022103.601 7  84952673.762 7                  20746192.773
  20746199.742    20746199.727                          42.500          42.600

 106060860.736 8  82491743.424 5                  19806071.688    19806070.855
                  19806075.523                          51.300          33.800

 113886198.162 7  88577958.172 4                  21304711.641    21304710.434
                  21304718.887                          47.800          29.000

 109721033.936 8  85338642.753 6                  20554436.500    20554435.598
                  20554441.465                          51.600          36.500

 117108358.820 6  91253418.647 6                  22285000.172
  22285007.254    22285008.918                          38.100          36.700

 123331264.03015  96102498.93615                  23469159.734
  23469174.082                                          32.000          33.400

 120753101.620 6                                  22581438.367    22581437.922
                                                        38.900

 13 10  1 10 12 30.0000000  0 12G10G02R07R23G26G05R08R01R22G29G15R24
 122166682.96114                                  23247506.063
                                                        29.400

 108216786.899 7  84324964.35543                  20592977.273
                  20592982.844                          42.800          21.300

 120794684.396 6                                  22565456.039    22565456.559
                                                        37.400

 104290442.785 9  81114815.182 6                  19495989.617    19495990.000
                  19495996.578                          54.100          36.400

 109314023.787 7  85179645.05643                  20801722.109
                  20801730.164                          42.200          19.900

 109042295.359 7  84968407.613 7                  20750035.008
  20750041.598    20750042.039                          43.000          42.000

 106099056.162 8  82521450.983 5                  19813204.703    19813203.516
                  19813207.926                          51.200          33.800

 113826994.603 7  88531911.056 4                  21293635.625    21293633.949
                  21293643.098                          47.600          27.000

 109810975.107 8  85408596.928 6                  20571285.547    20571284.410
                  20571290.055                          51.700          36.800

 117039095.108 6  91199446.930 6                  22271820.211
  22271827.152    22271827.883                          37.500          36.300

 123221977.152 5  96017341.078 5                  23448362.117
  23448376.617                                          32.400          33.100

 120634282.516 6  93826684.75813                  22559217.664    22559218.156
                  22559224.598                          38.600          22.100

 13 10  1 10 13  0.0000000  0 12G10G02R07R23G26G05R08R01R22G29G15R24
 122252397.66114                                  23263820.719
                                                        29.600

 108228939.529 7  84334433.94743                  20595290.000
                  20595295.664                          43.000          22.200

 120893736.500 6                                  22583960.172    22583959.285
                                                        38.200

 104257528.419 9  81089215.119 6                  19489837.008    19489836.336
                  19489842.742                          54.500          36.400

 109233316.915 7  85116756.65143                  20786363.664
                  20786371.832                          42.400          20.100

 109062725.824 7  84984327.473 7                  20753922.539
  20753929.773    20753930.063                          42.900          43.200

 106137621.933 8  82551446.599 5                  19820405.914    19820405.434
                  19820410.059                          51.800          34.600

 113768213.632 7  88486192.630 4                  21282639.219    21282638.484
                  21282647.309                          47.300          27.600

 109901456.652 8  85478971.407 6                  20588235.766    20588234.512
                  20588240.629                          51.600          37.300

 116970260.450 6  91145809.545 6                  22258720.609
  22258728.547    22258728.484                          38.000          38.100

 123112857.720 5  95932313.663 5                  23427596.250
  23427610.734                                          33.000          33.100

 120515685.871 6  93734442.944 3                  22537039.203    22537038.992
                  22537046.578                          39.200          22.300

 13 10  1 10 13 30.0000000  0 12G10G02R07R23G26G05R08R01R22G29G15R24
 122338109.03314                                  23280127.141
                                                        29.400

 108241419.598 7  84344158.68243                  20597664.477
                  20597670.324                          42.500          21.100

 120992755.253 5                                  22602457.211    22602456.910
                                                        35.000

 104225337.618 9  81064177.857 6                  19483818.906    19483818.234
                  19483824.609                          54.000          37.000

 109153098.282 7  85054248.68543                  20771099.109
                  20771106.586                          42.500          20.900

 109083384.077 7  85000424.828 7                  20757854.336
  20757861.141    20757860.879                          43.100          43.400

 106176545.480 8  82581720.496 5                  19827675.094    19827674.379
                  19827678.859                          51.700          35.000

 113709845.574 7  88440795.297 4                  21271720.430    21271719.578
                  21271728.301                          47.200          29.200

 109992466.202 8  85549756.553 6                  20605284.906    20605284.004
                  20605289.535                          51.600          37.600

 116901847.594 6  91092500.867 6                  22245701.813
  22245710.527    22245711.316                          37.400          40.200

 123003898.232 5  95847410.870 5                  23406862.516
  23406876.535                                          32.600          33.600

 120397305.594 6  93642369.541 4                  22514901.898    22514901.805
                  22514908.859                          39.700          25.500

 13 10  1 10 14  0.0000000  0 12G10G02R07R23G26G05R08R01R22G29G15R24
 122423822.55215                                  23296440.164
                                                        30.100

 108254234.702 7  84354144.47043                  20600103.805
                  20600108.961                          42.100          20.100

 121091745.876 5                                  22620952.141    22620950.313
                                                        35.800

 104193879.780 8  81039710.653 6                  19477937.750    19477937.313
                  19477943.758                          53.800          36.300

 109073377.333 7  84992128.55243                  20755927.883
                  20755936.676                          42.000          19.600

 109104275.241 7  85016703.692 7                  20761829.039
  20761836.652    20761836.398                          42.900          42.600

 106215830.580 8  82612275.575 5                  19835010.547    19835010.418
                  19835014.930                          51.300          32.600

 113651896.662 7  88395724.025 4                  21260879.813    21260878.723
                  21260887.625                          47.500          27.400

 110084007.545 8  85620955.307 6                  20622434.297    20622433.277
                  20622438.781                          53.000          37.100

 116833865.232 6  91039527.659 6                  22232765.586
  22232773.891    22232775.242                          37.900          38.300

 122895107.622 5  95762639.615 5                  23386159.570
  23386173.129                                          33.800          31.800

 120279152.351 6  93550472.660 4                  22492807.164    22492807.070
                  22492812.773                          40.600          24.300

 13 10  1 10 14 30.0000000  0 12G10G02R07R23G26G05R08R01R22G29G15R24
 122509531.22715                                  23312749.172
                                                        30.300

 108267379.962 7  84364387.51643                  20602604.781
                  20602610.488                          42.000          20.600

 121190699.947 6                                  22639436.188    22639435.066
                                                        37.900

 104163150.965 8  81015810.461 6                  19472193.617    19472192.945
                  19472199.621                          53.700          37.400

 108994151.019 7  84930393.80843                  20740851.922
                  20740860.074                          42.500          20.100

 109125392.327 7  85033158.582 7                  20765847.688
  20765854.988    20765855.355                          42.300          42.800

 106255468.441 8  82643105.034 5                  19842412.992    19842412.746
                  19842416.852                          51.100          33.000

 113594360.695 7  88350973.920 4                  21250117.164    21250115.605
                  21250124.211                          47.300          28.300

 110176072.047 8  85692560.978 6                  20639680.617    20639679.480
                  20639685.242                          52.600          37.400

 116766309.785 6  90986887.074 6                  22219910.609
  22219918.609    22219918.949                          38.300          39.400

 122786482.728 5  95677997.476 5                  23365488.008
  23365501.875                                          34.000          34.000

 120161224.215 6  93458750.908 3                  22470753.453    22470753.594
                  22470759.094                          40.800          23.000

 13 10  1 10 15  0.0000000  0 12G10G02R07R23G26G05R08R01R22G29G15R24
                                                  23329059.656
                                                        28.600

 108280861.408 6  84374892.54943                  20605170.672
                  20605176.410                          40.700          21.300

 121289620.307 6                                  22657916.289    22657915.051
                                                        40.100

 104133158.731 8  80992483.188 6                  19466586.813    19466586.141
                  19466592.508                          53.100          36.000

 108915426.956 7  84869050.44343                  20725871.109
                  20725879.336                          42.400          21.100

 109146739.122 7  85049792.473 7                  20769909.258
  20769917.141    20769917.320                          43.200          42.900

 106295461.218 8  82674210.533 5                  19849881.938    19849880.750
                  19849885.117                          51.400          32.000

 113537242.508 8  88306548.753 4                  21239431.617    21239430.293
                  21239439.121                          48.400          29.100

 110268661.815 8  85764575.189 6                  20657025.953    20657024.816
                  20657031.184                          52.700          37.600

 116699188.433 6  90934584.794 6                  22207136.906
  22207145.426    22207145.605                          37.900          37.600

 122678030.833 5  95593490.116 5                  23344850.758
  23344863.559                                          34.100          34.400

