     3.02           OBSERVATION DATA    GPS                 RINEX VERSION / TYPE
Assistant 1.0       StaticToRinex       20200827 170805 LCL PGM / RUN BY / DATE 
       G = GPS       R = GLONASS       C = COMPASS          COMMENT             
       S = SBAS      J = QZSS          E = GALILEO          COMMENT             
0000                                                        MARKER NAME         
1                                                           MARKER NUMBER       
                                                            MARKER TYPE         
                                                            OBSERVER / AGENCY
                                                            REC # / TYPE / VERS 
0                                                           ANT # / TYPE        
        0.0000        0.0000        0.0000                  APPROX POSITION XYZ 
        0.0000        0.0000        0.0000                  ANTENNA: DELTA H/E/N
G    8 C1C L1C D1C S1C C2P L2P D2P S2P                      SYS / # / OBS TYPES 
DBHZ                                                        COMMENT             
     1.000                                                  INTERVAL            
  2020    08    27    08    50    0.0000000     GPS         TIME OF FIRST OBS   
  2020    08    27    09    07   33.0000000     GPS         TIME OF LAST OBS    
     0                                                      RCV CLOCK OFFS APPL 
G L1C  0.00000                                              SYS / PHASE SHIFT   
G L2P  0.00000                                              SYS / PHASE SHIFT   
    18                                                      LEAP SECONDS        
*** Above antenna height is from mark to PHASE CENTER.      COMMENT             
     0     0        0.0000        ANT MEASURE TYPE/HEIGT    COMMENT             
    0.0000    0.0000    0.0000    0.0000    0.0000          COMMENT             
                    BASE STATION                            COMMENT             
                                                            END OF HEADER       
> 2020 08 27 08 50  0.0000000  0  3       0.000000000000
G05  23935024.840 7 125779404.301 7     -2278.996 7        45.935 7  23935026.398 6  98009931.055 6     -1775.803 6        36.598 6
G13  22602887.555 7 118778975.536 7     -2946.496 7        42.090 7  22602888.398 3  92555049.351 3     -2295.998 3        22.420 3
G15  20565897.203 6 108074518.311 6     -1509.816 6        40.822 6  20565897.492 3  84213911.540 3     -1176.486 3        21.171 3
> 2020 08 27 08 50  1.0000000  0  3       0.000000000000
G05  23935458.293 7 125781682.920 7     -2278.365 7        45.935 7  23935460.012 6  98011706.580 6     -1774.881 6        36.577 6
G13  22603448.359 6 118781921.323 6     -2945.240 6        41.921 6  22603449.031 3  92557344.765 3     -2294.979 3        22.043 3
G15  20566184.707 6 108076027.397 6     -1508.873 6        40.748 6  20566184.578 3  84215087.447 3     -1175.721 3        20.379 3
> 2020 08 27 08 50  2.0000000  0  3       0.000000000000
G05  23935891.734 7 125783961.608 7     -2279.014 7        46.014 7  23935893.598 6  98013482.204 6     -1776.307 6        36.714 6
G13  22604008.582 6 118784867.172 6     -2945.867 6        41.864 6  22604009.555 3  92559640.232 3     -2295.584 3        21.171 3
G15  20566472.051 6 108077536.707 6     -1509.561 6        40.822 6  20566471.551 3  84216263.531 3     -1176.346 3        20.923 3
> 2020 08 27 08 50  3.0000000  0  3       0.000000000000
G05  23936325.961 7 125786240.390 7     -2278.133 7        46.002 7  23936327.336 6  98015257.871 6     -1775.424 6        36.840 6
G13  22604568.871 6 118787813.115 6     -2945.438 6        41.626 6  22604570.047 3  92561935.777 3     -2295.189 3        20.923 3
G15  20566758.895 6 108079046.307 6     -1508.738 6        40.822 6  20566758.578 3  84217439.850 3     -1175.678 3        19.758 3
> 2020 08 27 08 50  4.0000000  0  3       0.000000000000
G05  23936759.680 7 125788519.325 7     -2278.779 7        46.178 7  23936761.098 6  98017033.665 6     -1775.629 6        36.866 6
G13  22605129.656 6 118790759.163 6     -2946.357 6        41.533 6  22605130.543 3  92564231.389 3     -2295.863 3        20.660 3
G15  20567045.656 6 108080556.229 6     -1510.166 6        41.037 6  20567045.625 3  84218616.429 3     -1176.820 3        20.923 3
> 2020 08 27 08 50  5.0000000  0  3       0.000000000000
G05  23937193.238 7 125790798.574 7     -2279.338 7        46.199 7  23937194.871 6  98018809.690 6     -1775.809 6        36.754 6
G13  22605690.711 6 118793705.489 6     -2946.566 6        41.470 6  22605691.195 3  92566527.224 3     -2295.984 3        20.923 3
G15  20567333.262 6 108082066.630 6     -1511.213 6        40.895 6  20567332.746 3  84219793.362 3     -1177.586 3        21.171 3
> 2020 08 27 08 50  6.0000000  0  3       0.000000000000
G05  23937627.375 7 125793077.906 7     -2279.906 7        46.325 7  23937628.590 6  98020585.811 6     -1776.621 6        36.898 6
G13  22606250.910 6 118796651.865 6     -2946.703 6        41.276 6  22606251.797 3  92568823.090 3     -2296.055 3        20.660 3
G15  20567621.156 6 108083577.245 6     -1511.119 6        40.748 6  20567620.113 3  84220970.480 3     -1177.500 3        20.080 3
> 2020 08 27 08 50  7.0000000  0  3       0.000000000000
G05  23938060.723 7 125795357.193 7     -2279.527 7        46.356 7  23938062.266 6  98022361.882 6     -1776.428 6        37.051 6
G13  22606811.320 6 118799598.171 6     -2946.246 6        41.406 6  22606812.496 3  92571118.918 3     -2295.764 3        20.923 3
G15  20567908.836 6 108085088.004 6     -1510.758 6        40.822 6  20567907.418 3  84222147.686 3     -1177.248 3        20.660 3
> 2020 08 27 08 50  8.0000000  0  3       0.000000000000
G05  23938494.484 7 125797636.648 7     -2279.768 7        46.468 7  23938496.117 6  98024138.063 6     -1776.398 6        37.155 6
G13  22607372.008 6 118802544.625 6     -2946.604 6        41.175 6  22607373.141 3  92573414.857 3     -2296.047 3        21.406 3
G15  20568195.930 6 108086599.108 6     -1510.939 6        40.931 6  20568194.773 3  84223325.168 3     -1177.414 3        20.660 3
> 2020 08 27 08 50  9.0000000  0  3       0.000000000000
G05  23938928.230 7 125799916.508 7     -2279.850 7        46.508 7  23938930.004 6  98025914.582 6     -1776.537 6        37.369 6
G13  22607932.676 6 118805491.454 6     -2946.412 6        40.967 6  22607933.809 3  92575711.086 3     -2295.814 3        22.043 3
G15  20568483.148 6 108088110.789 6     -1511.686 6        40.822 6  20568482.277 3  84224503.075 3     -1177.963 3        20.379 3
> 2020 08 27 08 50 10.0000000  0  3       0.000000000000
G05  23939361.695 7 125802196.679 7     -2281.098 7        46.438 7  23939363.840 6  98027691.319 6     -1777.135 6        37.404 6
G13  22608493.777 6 118808438.579 6     -2948.012 6        40.931 6  22608494.578 3  92578007.548 3     -2297.174 3        21.406 3
G15  20568771.375 6 108089622.959 6     -1513.305 6        40.822 6  20568769.844 3  84225681.410 3     -1179.283 3        21.406 3
> 2020 08 27 08 50 11.0000000  0  3       0.000000000000
G05  23939796.203 7 125804476.724 7     -2280.596 7        46.635 7  23939797.777 6  98029468.006 6     -1777.254 6        37.269 6
G13  22609055.066 6 118811385.565 6     -2948.037 6        40.785 6  22609055.352 3  92580303.901 3     -2297.254 3        20.923 3
G15  20569059.359 6 108091135.153 6     -1513.057 6        40.672 6  20569057.340 3  84226859.762 3     -1178.992 3        22.236 3
> 2020 08 27 08 50 12.0000000  0  3       0.000000000000
G05  23940230.395 7 125806756.672 7     -2279.971 7        46.488 7  23940231.684 6  98031244.587 6     -1776.982 6        37.346 6
G13  22609616.035 6 118814332.395 6     -2947.217 6        40.556 6  22609615.949 3  92582600.113 3     -2296.572 3        20.923 3
G15  20569346.594 6 108092647.419 6     -1512.412 6        40.595 6  20569345.117 3  84228038.139 3     -1178.467 3        21.841 3
> 2020 08 27 08 50 13.0000000  0  3       0.000000000000
G05  23940663.965 7 125809036.973 7     -2279.889 7        46.488 7  23940665.410 6  98033021.438 6     -1776.629 6        37.438 6
G13  22610176.527 6 118817279.570 6     -2947.623 6        40.517 6  22610176.586 3  92584896.628 3     -2296.883 3        20.923 3
G15  20569634.352 6 108094160.191 6     -1512.486 6        40.748 6  20569632.734 3  84229216.934 3     -1178.680 3        22.598 3
> 2020 08 27 08 50 14.0000000  0  3       0.000000000000
G05  23941098.023 7 125811317.401 7     -2279.879 7        46.438 7  23941099.383 6  98034798.398 6     -1776.744 6        37.506 6
G13  22610737.082 6 118820226.837 6     -2947.066 6        40.477 6  22610737.297 3  92587193.193 3     -2296.412 3        21.171 3
G15  20569922.891 6 108095673.273 6     -1512.320 6        40.858 6  20569920.527 3  84230395.944 3     -1178.521 3        23.090 3
> 2020 08 27 08 50 15.0000000  0  3       0.000000000000
G05  23941532.539 7 125813598.150 7     -2281.074 7        46.577 7  23941533.297 6  98036575.590 6     -1776.986 6        37.561 6
G13  22611298.379 6 118823174.396 6     -2947.773 6        40.437 6  22611298.105 3  92589489.985 3     -2296.928 3        20.080 3
G15  20570211.879 6 108097186.842 6     -1513.633 6        40.858 6  20570208.258 3  84231575.347 3     -1179.467 3        22.236 3
> 2020 08 27 08 50 16.0000000  0  3       0.000000000000
G05  23941966.234 7 125815879.062 7     -2281.502 7        46.407 7  23941967.191 6  98038352.928 6     -1777.172 6        37.622 6
G13  22611859.277 6 118826122.131 6     -2947.791 6        40.231 6  22611859.121 3  92591786.900 3     -2296.977 3        19.758 3
G15  20570499.906 6 108098700.731 6     -1513.592 6        40.895 6  20570496.039 3  84232755.005 3     -1179.418 3        22.236 3
> 2020 08 27 08 50 17.0000000  0  3       0.000000000000
G05  23942400.301 7 125818159.925 7     -2280.973 7        46.377 7  23942401.320 6  98040130.243 6     -1777.637 6        37.478 6
G13  22612420.129 6 118829069.769 6     -2947.848 6        40.273 6  22612419.898 3  92594083.775 3     -2296.992 3        19.032 3
G15  20570788.020 6 108100214.796 6     -1514.254 6        41.002 6  20570783.914 3  84233934.802 3     -1179.883 3        21.406 3
> 2020 08 27 08 50 18.0000000  0  3       0.000000000000
G05  23942834.398 7 125820441.180 7     -2281.539 7        46.387 7  23942835.355 6  98041907.829 6     -1777.627 6        37.340 6
G13  22612981.574 6 118832017.772 6     -2947.633 6        40.356 6  22612980.758 3  92596380.916 3     -2296.865 3        19.410 3
G15  20571075.730 6 108101729.367 6     -1514.566 6        41.072 6  20571072.012 3  84235114.986 3     -1180.127 3        21.629 3
> 2020 08 27 08 50 19.0000000  0  3       0.000000000000
G05  23943268.563 7 125822722.344 7     -2281.473 7        46.335 7  23943269.465 6  98043685.353 6     -1777.701 6        37.263 6
G13  22613542.094 6 118834965.664 6     -2948.289 6        40.356 6  22613541.734 3  92598677.967 3     -2297.350 3        19.032 3
G15  20571363.371 6 108103244.043 6     -1515.438 6        41.037 6  20571360.270 3  84236295.256 3     -1180.787 3        21.629 3
> 2020 08 27 08 50 20.0000000  0  3       0.000000000000
G05  23943702.715 7 125825004.010 7     -2281.967 7        46.428 7  23943703.676 6  98045463.278 6     -1778.240 6        37.455 6
G13  22614103.738 6 118837914.035 6     -2949.252 6        40.672 6  22614102.938 3  92600975.395 3     -2298.084 3        18.618 3
G15  20571651.426 6 108104759.363 6     -1515.932 6        41.107 6  20571648.566 3  84237476.009 3     -1181.248 3        21.406 3
> 2020 08 27 08 50 21.0000000  0  3       0.000000000000
G05  23944137.141 7 125827285.696 7     -2281.730 7        46.428 7  23944137.715 6  98047241.212 6     -1777.934 6        37.556 6
G13  22614664.516 6 118840862.392 6     -2949.035 6        40.710 6  22614663.871 3  92603272.821 3     -2297.953 3        18.618 3
G15  20571939.898 6 108106274.871 6     -1515.266 6        40.931 6  20571936.980 3  84238656.936 3     -1180.727 3        20.923 3
> 2020 08 27 08 50 22.0000000  0  3       0.000000000000
G05  23944570.516 7 125829567.557 7     -2281.723 7        46.488 7  23944571.973 6  98049019.280 6     -1777.738 6        37.709 6
G13  22615225.383 6 118843810.865 6     -2947.602 6        40.895 6  22615224.836 3  92605570.343 3     -2296.840 3        19.410 3
G15  20572228.320 6 108107790.732 6     -1515.277 6        41.107 6  20572225.387 3  84239838.128 3     -1180.746 3        20.923 3
> 2020 08 27 08 50 23.0000000  0  3       0.000000000000
G05  23945005.098 7 125831849.517 7     -2282.232 7        46.241 7  23945006.230 6  98050797.439 6     -1778.303 6        37.649 6
G13  22615786.461 6 118846759.463 6     -2949.088 6        40.858 6  22615786.016 3  92607867.940 3     -2297.893 3        20.660 3
G15  20572517.523 6 108109306.866 6     -1516.607 6        41.438 6  20572513.844 3  84241019.526 3     -1181.760 3        21.406 3
> 2020 08 27 08 50 24.0000000  0  3       0.000000000000
G05  23945439.512 7 125834131.813 7     -2282.402 7        46.325 7  23945440.570 6  98052575.852 6     -1778.463 6        37.534 6
G13  22616347.797 6 118849708.337 6     -2948.965 6        40.967 6  22616347.293 3  92610165.762 3     -2297.857 3        20.660 3
G15  20572806.125 6 108110823.508 6     -1516.914 6        41.175 6  20572802.262 3  84242201.327 3     -1182.057 3        21.629 3
> 2020 08 27 08 50 25.0000000  0  3       0.000000000000
G05  23945873.695 7 125836414.130 7     -2282.283 7        46.283 7  23945874.754 6  98054354.292 6     -1778.477 6        37.556 6
G13  22616909.043 6 118852657.188 6     -2948.240 6        41.242 6  22616908.457 3  92612463.581 3     -2297.324 3        20.660 3
G15  20573094.211 6 108112340.317 6     -1516.912 6        41.037 6  20573090.723 3  84243383.266 3     -1181.973 3        22.768 3
> 2020 08 27 08 50 26.0000000  0  3       0.000000000000
G05  23946307.980 7 125838696.632 7     -2282.654 7        46.156 7  23946309.195 6  98056132.857 6     -1778.381 6        37.622 6
G13  22617470.250 6 118855606.238 6     -2948.826 6        41.242 6  22617469.637 3  92614761.533 3     -2297.834 3        21.171 3
G15  20573383.113 6 108113857.496 6     -1517.283 6        41.175 6  20573379.465 3  84244565.471 3     -1182.326 3        23.090 3
> 2020 08 27 08 50 27.0000000  0  3       0.000000000000
G05  23946742.332 7 125840979.239 7     -2282.854 7        46.188 7  23946743.535 6  98057911.515 6     -1778.824 6        37.483 6
G13  22618031.668 6 118858555.355 6     -2949.104 6        41.276 6  22618030.754 3  92617059.538 3     -2298.043 3        20.379 3
G15  20573671.801 6 108115374.934 6     -1517.951 6        41.175 6  20573668.207 3  84245747.901 3     -1182.830 3        22.768 3
> 2020 08 27 08 50 28.0000000  0  3       0.000000000000
G05  23947176.996 7 125843262.192 7     -2283.049 7        46.113 7  23947177.926 6  98059690.435 6     -1779.311 6        37.432 6
G13  22618592.969 6 118861504.787 6     -2949.670 6        41.374 6  22618591.738 3  92619357.783 3     -2298.412 3        20.660 3
G15  20573960.797 6 108116892.888 6     -1518.029 6        41.107 6  20573957.121 3  84246930.713 3     -1182.865 3        22.236 3
> 2020 08 27 08 50 29.0000000  0  3       0.000000000000
G05  23947611.707 7 125845545.122 7     -2283.332 7        46.091 7  23947612.465 6  98061469.331 6     -1778.902 6        37.328 6
G13  22619154.316 6 118864454.161 6     -2949.311 6        41.470 6  22619152.871 3  92621656.016 3     -2298.141 3        20.923 3
G15  20574249.555 6 108118410.978 6     -1518.293 6        41.002 6  20574245.891 3  84248113.642 3     -1183.160 3        22.932 3
> 2020 08 27 08 50 30.0000000  0  3       0.000000000000
G05  23948045.297 7 125847828.142 7     -2283.318 7        45.924 7  23948046.898 6  98063248.297 6     -1778.672 6        37.363 6
G13  22619715.688 6 118867403.624 6     -2949.432 6        41.564 6  22619714.113 3  92623954.287 3     -2298.281 3        21.406 3
G15  20574538.762 6 108119929.354 6     -1518.846 6        40.858 6  20574534.883 3  84249296.798 3     -1183.516 3        22.598 3
> 2020 08 27 08 50 31.0000000  0  3       0.000000000000
G05  23948479.805 7 125850111.324 7     -2283.107 7        45.866 7  23948481.309 6  98065027.424 6     -1779.322 6        37.234 6
G13  22620276.691 6 118870353.207 6     -2949.201 6        41.374 6  22620275.387 3  92626252.646 3     -2297.994 3        21.629 3
G15  20574827.031 6 108121448.052 6     -1519.182 6        40.595 6  20574823.758 3  84250480.212 3     -1183.832 3        22.236 3
> 2020 08 27 08 50 32.0000000  0  3       0.000000000000
G05  23948914.543 7 125852394.608 7     -2283.313 7        45.878 7  23948915.844 6  98066806.590 6     -1778.840 6        37.275 6
G13  22620837.492 6 118873302.866 6     -2949.521 6        41.564 6  22620836.648 3  92628551.085 3     -2298.391 3        20.080 3
G15  20575115.531 6 108122966.997 6     -1519.172 6        40.315 6  20575112.566 3  84251663.822 3     -1183.781 3        22.420 3
> 2020 08 27 08 50 33.0000000  0  3       0.000000000000
G05  23949349.387 7 125854678.146 7     -2283.727 7        45.690 7  23949350.387 6  98068585.980 6     -1779.295 6        37.305 6
G13  22621399.828 6 118876252.747 6     -2949.957 6        41.438 6  22621397.941 3  92630849.692 3     -2298.709 3        20.379 3
G15  20575404.992 6 108124486.371 6     -1519.586 6        40.015 6  20575401.773 3  84252847.743 3     -1184.158 3        22.043 3
> 2020 08 27 08 50 34.0000000  0  3       0.000000000000
G05  23949783.938 7 125856961.750 7     -2283.598 7        45.666 7  23949784.957 6  98070365.416 6     -1779.461 6        37.222 6
G13  22621961.160 6 118879202.689 6     -2950.121 6        41.656 6  22621959.289 3  92633148.352 3     -2298.758 3        21.171 3
G15  20575693.879 6 108126005.994 6     -1520.160 6        39.548 6  20575690.730 3  84254031.853 3     -1184.637 3        22.420 3
> 2020 08 27 08 50 35.0000000  0  3       0.000000000000
G05  23950218.355 7 125859245.542 7     -2283.676 7        45.726 7  23950219.586 6  98072144.991 6     -1779.486 6        37.125 6
G13  22622521.930 6 118882152.780 6     -2950.590 6        41.626 6  22622520.613 3  92635447.131 3     -2299.232 3        21.406 3
G15  20575983.344 6 108127525.982 6     -1520.473 6        39.134 6  20575980.051 3  84255216.272 3     -1184.818 3        22.768 3
> 2020 08 27 08 50 36.0000000  0  3       0.000000000000
G05  23950653.063 7 125861529.765 7     -2283.879 7        45.506 7  23950654.094 6  98073924.913 6     -1779.766 6        36.937 6
G13  22623083.703 6 118885103.277 6     -2950.305 6        41.564 6  22623081.969 3  92637746.223 3     -2298.887 3        20.379 3
G15  20576272.668 6 108129046.509 6     -1519.563 6        38.554 6  20576269.234 3  84256401.082 3     -1184.121 3        21.841 3
> 2020 08 27 08 50 37.0000000  0  3       0.000000000000
G05  23951087.430 7 125863814.344 7     -2284.127 7        45.366 7  23951088.777 6  98075705.102 6     -1779.926 6        36.714 6
G13  22623645.277 6 118888054.067 6     -2950.123 6        41.747 6  22623643.391 3  92640045.538 3     -2298.695 3        21.841 3
G15  20576562.082 6 108130567.651 6     -1521.334 6        38.232 6  20576558.594 3  84257586.402 3     -1185.453 3        22.043 3
> 2020 08 27 08 50 38.0000000  0  3       0.000000000000
G05  23951522.750 7 125866099.232 7     -2285.371 7        45.379 7  23951523.477 6  98077485.523 6     -1780.715 6        36.570 6
G13  22624207.090 7 118891005.155 7     -2951.367 7        42.006 7  22624204.941 3  92642345.098 3     -2299.719 3        21.629 3
G15  20576851.449 6 108132089.198 6     -1521.678 6        37.662 6  20576848.242 3  84258772.017 3     -1185.695 3        22.043 3
> 2020 08 27 08 50 39.0000000  0  3       0.000000000000
G05  23951957.250 7 125868384.243 7     -2285.182 7        45.327 7  23951958.336 6  98079266.068 6     -1780.592 6        36.632 6
G13  22624768.367 7 118893956.372 7     -2951.432 7        42.144 7  22624766.566 3  92644644.742 3     -2299.850 3        21.406 3
G15  20577140.137 6 108133611.097 6     -1522.330 6        37.346 6  20577137.805 3  84259957.911 3     -1186.141 3        21.171 3
> 2020 08 27 08 50 40.0000000  0  3       0.000000000000
G05  23952391.414 7 125870669.304 7     -2285.395 7        45.405 7  23952393.172 6  98081046.630 6     -1781.086 6        36.472 6
G13  22625330.457 7 118896907.575 7     -2951.840 7        42.304 7  22625328.266 3  92646944.371 3     -2300.109 3        21.406 3
G15  20577429.922 6 108135133.157 6     -1522.563 6        37.005 6  20577427.504 3  84261143.921 3     -1186.418 3        21.171 3
> 2020 08 27 08 50 41.0000000  0  3       0.000000000000
G05  23952826.340 7 125872954.615 7     -2285.518 7        45.469 7  23952828.070 6  98082827.383 6     -1780.711 6        36.223 6
G13  22625891.879 7 118899859.007 7     -2951.551 7        42.171 7  22625889.945 3  92649244.177 3     -2299.832 3        20.660 3
G15  20577719.609 6 108136655.635 6     -1522.217 6        36.635 6  20577717.105 3  84262330.269 3     -1186.182 3        20.660 3
> 2020 08 27 08 50 42.0000000  0  3       0.000000000000
G05  23953261.984 7 125875240.195 7     -2285.416 7        45.418 7  23953263.070 6  98084608.365 6     -1781.268 6        36.215 6
G13  22626453.871 7 118902810.707 7     -2952.037 7        42.330 7  22626451.797 3  92651544.207 3     -2300.311 3        20.660 3
G15  20578009.441 6 108138178.596 6     -1522.975 6        36.731 6  20578006.883 3  84263516.981 3     -1186.697 3        21.171 3
> 2020 08 27 08 50 43.0000000  0  3       0.000000000000
G05  23953696.664 7 125877526.023 7     -2285.439 7        45.301 7  23953698.051 6  98086389.521 6     -1780.777 6        36.371 6
G13  22627015.188 7 118905762.591 7     -2951.650 7        42.225 7  22627013.672 3  92653844.370 3     -2300.055 3        20.923 3
G15  20578298.742 6 108139701.919 6     -1522.607 6        36.231 6  20578296.625 3  84264703.986 3     -1186.422 3        20.923 3
> 2020 08 27 08 50 44.0000000  0  3       0.000000000000
G05  23954131.625 7 125879811.923 7     -2286.162 7        45.275 7  23954133.000 6  98088170.735 6     -1781.455 6        36.275 6
G13  22627577.359 7 118908714.504 7     -2951.533 7        42.304 7  22627575.328 3  92656144.562 3     -2299.893 3        21.629 3
G15  20578588.609 6 108141225.492 6     -1523.740 6        36.014 6  20578586.434 3  84265891.187 3     -1187.314 3        21.629 3
> 2020 08 27 08 50 45.0000000  0  3       0.000000000000
G05  23954566.980 7 125882097.934 7     -2286.193 7        45.195 7  23954567.996 6  98089952.037 6     -1781.037 6        36.223 6
G13  22628138.488 7 118911666.538 7     -2951.936 7        42.278 7  22628137.086 3  92658444.835 3     -2300.100 3        20.660 3
G15  20578877.723 5 108142749.403 5     -1525.393 5        35.544 5  20578876.578 3  84267078.666 3     -1188.732 3        20.660 3
> 2020 08 27 08 50 46.0000000  0  3       0.000000000000
G05  23955002.246 7 125884384.296 7     -2286.258 7        45.086 7  23955003.273 6  98091733.635 6     -1781.578 6        36.116 6
G13  22628700.535 7 118914618.880 7     -2952.156 7        42.171 7  22628698.934 3  92660745.370 3     -2300.328 3        21.171 3
G15  20579168.035 5 108144273.743 5     -1523.953 5        35.154 5  20579166.574 3  84268266.466 3     -1187.457 3        20.660 3
> 2020 08 27 08 50 47.0000000  0  3       0.000000000000
G05  23955436.910 7 125886670.758 7     -2286.500 7        44.974 7  23955438.473 6  98093515.263 6     -1781.240 6        36.046 6
G13  22629262.840 7 118917571.285 7     -2952.398 7        42.356 7  22629260.852 3  92663045.946 3     -2300.596 3        21.841 3
G15  20579458.465 5 108145798.383 5     -1524.293 5        34.727 5  20579456.820 3  84269454.488 3     -1187.764 3        20.080 3
> 2020 08 27 08 50 48.0000000  0  3       0.000000000000
G05  23955872.086 7 125888957.400 7     -2287.115 7        44.946 7  23955873.633 5  98095297.086 5     -1782.406 5        35.728 5
G13  22629824.078 7 118920523.839 7     -2952.721 7        42.382 7  22629822.617 3  92665346.647 3     -2300.805 3        21.406 3
G15  20579748.688 5 108147323.368 5     -1525.494 5        34.417 5  20579747.086 3  84270642.775 3     -1188.676 3        19.758 3
> 2020 08 27 08 50 49.0000000  0  3       0.000000000000
G05  23956306.785 7 125891244.039 7     -2286.223 7        44.831 7  23956308.848 5  98097078.876 5     -1781.918 5        35.853 5
G13  22630385.844 7 118923476.371 7     -2952.844 7        42.304 7  22630384.258 3  92667647.339 3     -2301.039 3        21.629 3
G15  20580038.578 5 108148848.523 5     -1524.934 5        33.905 5  20580037.250 3  84271831.196 3     -1188.285 3        20.080 3
> 2020 08 27 08 50 50.0000000  0  3       0.000000000000
G05  23956742.238 7 125893530.919 7     -2286.934 7        44.697 7  23956743.883 5  98098860.854 5     -1782.039 5        35.703 5
G13  22630947.500 7 118926429.094 7     -2952.539 7        42.278 7  22630946.172 3  92669948.143 3     -2300.672 3        21.841 3
G15  20580328.648 5 108150374.017 5     -1525.586 5        33.905 5  20580327.359 3  84273019.892 3     -1188.719 3        20.080 3
> 2020 08 27 08 50 51.0000000  0  3       0.000000000000
G05  23957177.527 7 125895817.756 7     -2286.863 7        44.449 7  23957179.102 5  98100642.814 5     -1782.131 5        35.511 5
G13  22631510.000 7 118929381.780 7     -2952.938 7        42.483 7  22631507.980 3  92672248.943 3     -2300.979 3        21.841 3
G15  20580619.129 5 108151899.721 5     -1524.891 5        33.325 5  20580617.582 3  84274208.740 3     -1188.225 3        21.171 3
> 2020 08 27 08 50 52.0000000  0  3       0.000000000000
G05  23957612.707 7 125898105.055 7     -2287.621 7        44.512 7  23957614.367 5  98102425.119 5     -1782.830 5        35.284 5
G13  22632071.961 7 118932334.864 7     -2953.305 7        42.483 7  22632069.930 3  92674550.039 3     -2301.287 3        21.629 3
G15  20580909.645 5 108153426.002 5     -1525.629 5        33.325 5  20580907.941 3  84275398.040 3     -1188.748 3        20.923 3
> 2020 08 27 08 50 53.0000000  0  3       0.000000000000
G05  23958047.973 7 125900392.335 7     -2287.098 7        44.528 7  23958049.547 5  98104207.420 5     -1782.793 5        35.376 5
G13  22632633.859 7 118935287.938 7     -2953.172 7        42.558 7  22632631.957 3  92676851.131 3     -2301.191 3        21.629 3
G15  20581201.102 5 108154952.494 5     -1526.805 5        33.527 5  20581198.410 3  84276587.514 3     -1189.785 3        20.660 3
> 2020 08 27 08 50 54.0000000  0  3       0.000000000000
G05  23958483.152 7 125902679.433 7     -2287.045 7        44.449 7  23958484.637 5  98105989.544 5     -1781.947 5        35.440 5
G13  22633195.531 7 118938240.781 7     -2952.396 7        42.607 7  22633193.801 3  92679152.049 3     -2300.541 3        20.923 3
G15  20581491.184 5 108156478.936 5     -1526.381 5        32.891 5  20581488.910 3  84277776.952 3     -1189.389 3        20.660 3
> 2020 08 27 08 50 55.0000000  0  3       0.000000000000
G05  23958917.961 7 125904966.799 7     -2288.428 7        44.433 7  23958919.809 5  98107771.910 5     -1783.057 5        35.494 5
G13  22633757.125 7 118941193.860 7     -2953.896 7        42.704 7  22633755.766 3  92681453.153 3     -2301.787 3        21.841 3
G15  20581781.617 5 108158005.764 5     -1527.393 5        33.325 5  20581779.426 3  84278966.702 3     -1190.186 3        19.758 3
> 2020 08 27 08 50 56.0000000  0  3       0.000000000000
G05  23959353.121 7 125907254.316 7     -2287.223 7        44.433 7  23959354.840 5  98109554.397 5     -1782.010 5        35.376 5
G13  22634319.207 7 118944147.088 7     -2953.006 7        42.508 7  22634317.848 3  92683754.361 3     -2301.072 3        21.406 3
G15  20582071.965 5 108159533.048 5     -1528.570 5        33.113 5  20582070.020 3  84280156.799 3     -1191.070 3        19.032 3
> 2020 08 27 08 50 57.0000000  0  3       0.000000000000
G05  23959788.906 7 125909541.742 7     -2287.604 7        44.401 7  23959790.352 5  98111336.814 5     -1783.127 5        35.208 5
G13  22634881.055 7 118947100.187 7     -2953.619 7        42.891 7  22634879.809 3  92686055.494 3     -2301.545 3        21.171 3
G15  20582361.941 5 108161060.295 5     -1528.795 5        33.527 5  20582360.609 3  84281346.843 3     -1191.291 3        19.410 3
> 2020 08 27 08 50 58.0000000  0  3       0.000000000000
G05  23960224.484 7 125911829.626 7     -2287.705 7        44.303 7  23960225.785 5  98113119.563 5     -1782.846 5        35.339 5
G13  22635442.980 7 118950053.696 7     -2953.330 7        42.728 7  22635441.852 3  92688356.906 3     -2301.225 3        21.171 3
G15  20582652.707 5 108162588.175 5     -1528.602 5        33.325 5  20582651.391 3  84282537.391 3     -1191.125 3        19.410 3
> 2020 08 27 08 50 59.0000000  0  3       0.000000000000
G05  23960659.746 7 125914117.164 7     -2288.213 7        44.253 7  23960661.148 5  98114902.059 5     -1782.539 5        35.227 5
G13  22636005.023 7 118953006.860 7     -2954.385 7        42.868 7  22636003.809 3  92690658.067 3     -2302.070 3        21.629 3
G15  20582943.449 5 108164115.851 5     -1528.721 5        33.720 5  20582941.918 3  84283727.792 3     -1191.094 3        19.032 3
> 2020 08 27 08 51  0.0000000  0  3       0.000000000000
G05  23961094.910 7 125916404.782 7     -2287.934 7        44.433 7  23961096.512 5  98116684.616 5     -1782.287 5        35.293 5
G13  22636567.109 7 118955960.032 7     -2953.207 7        42.821 7  22636565.793 3  92692959.247 3     -2301.213 3        21.629 3
G15  20583234.379 5 108165643.756 5     -1526.801 5        34.082 5  20583232.559 3  84284918.355 3     -1189.689 3        18.618 3
> 2020 08 27 08 51  1.0000000  0  3       0.000000000000
G05  23961529.809 7 125918692.614 7     -2287.973 7        44.269 7  23961531.828 5  98118467.369 5     -1783.734 5        35.302 5
G13  22637129.648 7 118958913.434 7     -2953.910 7        42.845 7  22637127.859 3  92695260.591 3     -2301.703 3        21.629 3
G15  20583525.039 5 108167172.146 5     -1529.145 5        34.417 5  20583523.266 3  84286109.294 3     -1191.527 3        20.080 3
> 2020 08 27 08 51  2.0000000  0  3       0.000000000000
G05  23961965.590 7 125920980.651 7     -2288.266 7        44.286 7  23961967.137 5  98120250.222 5     -1782.729 5        35.494 5
G13  22637691.492 7 118961866.982 7     -2953.578 7        42.891 7  22637689.875 3  92697562.070 3     -2301.498 3        21.629 3
G15  20583816.152 5 108168700.818 5     -1528.969 5        34.253 5  20583814.078 3  84287300.445 3     -1191.322 3        19.410 3
> 2020 08 27 08 51  3.0000000  0  3       0.000000000000
G05  23962400.742 7 125923268.796 7     -2287.869 7        44.236 7  23962402.488 5  98122033.195 5     -1782.988 5        35.413 5
G13  22638253.996 7 118964820.629 7     -2953.865 7        42.981 7  22638251.996 3  92699863.619 3     -2301.758 3        21.629 3
G15  20584107.070 5 108170229.793 5     -1529.471 5        34.082 5  20584104.895 3  84288491.851 3     -1191.758 3        19.410 3
> 2020 08 27 08 51  4.0000000  0  3       0.000000000000
G05  23962836.457 7 125925556.789 7     -2287.977 7        44.401 7  23962837.887 5  98123816.036 5     -1783.109 5        35.449 5
G13  22638815.059 7 118967774.069 7     -2953.502 7        43.026 7  22638814.086 3  92702165.006 3     -2301.469 3        21.406 3
G15  20584398.402 5 108171758.773 5     -1528.895 5        34.417 5  20584395.758 3  84289683.251 3     -1191.352 3        19.758 3
> 2020 08 27 08 51  5.0000000  0  3       0.000000000000
G05  23963271.422 7 125927844.916 7     -2287.949 7        44.401 7  23963273.340 5  98125598.988 5     -1782.686 5        35.274 5
G13  22639378.094 7 118970727.636 7     -2953.086 7        43.113 7  22639376.234 3  92704466.475 3     -2301.143 3        22.236 3
G15  20584689.707 5 108173288.069 5     -1528.848 5        34.082 5  20584686.645 3  84290874.900 3     -1191.260 3        18.618 3
> 2020 08 27 08 51  6.0000000  0  3       0.000000000000
G05  23963707.199 7 125930133.298 7     -2287.824 7        44.319 7  23963708.891 5  98127382.151 5     -1783.365 5        35.440 5
G13  22639939.648 7 118973681.427 7     -2953.781 7        42.936 7  22639938.176 3  92706768.148 3     -2301.764 3        21.629 3
G15  20584980.961 5 108174817.796 5     -1530.207 5        34.253 5  20584977.754 3  84292066.897 3     -1192.350 3        19.032 3
> 2020 08 27 08 51  7.0000000  0  3       0.000000000000
G05  23964143.070 7 125932421.756 7     -2289.195 7        44.512 7  23964144.371 5  98129165.361 5     -1783.785 5        35.617 5
G13  22640501.867 7 118976635.224 7     -2954.234 7        43.048 7  22640500.207 3  92709069.803 3     -2301.988 3        21.406 3
G15  20585272.305 5 108176347.733 5     -1531.305 5        34.417 5  20585268.770 2  84293259.057 2     -1193.238 2        17.069 2
> 2020 08 27 08 51  8.0000000  0  3       0.000000000000
G05  23964578.266 7 125934710.033 7     -2288.871 7        44.496 7  23964579.883 5  98130948.417 5     -1783.158 5        35.617 5
G13  22641064.129 7 118979588.852 7     -2953.617 7        42.845 7  22641062.281 3  92711371.337 3     -2301.576 3        22.043 3
G15  20585563.551 5 108177877.652 5     -1530.727 5        34.727 5  20585559.902 2  84294451.217 2     -1192.807 2        16.400 2
> 2020 08 27 08 51  9.0000000  0  3       0.000000000000
G05  23965014.578 7 125936998.283 7     -2288.498 7        44.512 7  23965015.379 5  98132731.489 5     -1783.395 5        35.728 5
G13  22641626.363 7 118982542.432 7     -2953.615 7        42.845 7  22641624.316 3  92713672.846 3     -2301.559 3        22.043 3
G15  20585854.914 5 108179407.674 5     -1529.299 5        35.288 5  20585851.223 2  84295643.422 2     -1191.715 2        17.069 2
> 2020 08 27 08 51 10.0000000  0  3       0.000000000000
G05  23965449.668 7 125939286.656 7     -2289.000 7        44.575 7  23965450.828 5  98134514.616 5     -1783.580 5        35.853 5
G13  22642188.375 7 118985496.088 7     -2954.527 7        42.751 7  22642186.457 3  92715974.378 3     -2302.232 3        21.841 3
G15  20586145.766 5 108180938.065 5     -1530.426 5        35.418 5  20586142.344 2  84296835.928 2     -1192.643 2        17.069 2
> 2020 08 27 08 51 11.0000000  0  3       0.000000000000
G05  23965884.813 7 125941575.145 7     -2289.207 7        44.651 7  23965886.258 5  98136297.857 5     -1783.248 5        35.625 5
G13  22642750.016 7 118988449.820 7     -2954.146 7        42.845 7  22642748.512 3  92718275.988 3     -2301.881 3        21.841 3
G15  20586436.816 5 108182468.704 5     -1531.219 5        35.785 5  20586433.555 2  84298028.653 2     -1193.189 2        17.649 2
> 2020 08 27 08 51 12.0000000  0  3       0.000000000000
G05  23966320.500 7 125943863.609 7     -2287.555 7        44.786 7  23966321.758 5  98138081.077 5     -1782.754 5        35.745 5
G13  22643311.766 7 118991403.524 7     -2952.828 7        42.583 7  22643310.434 3  92720577.598 3     -2300.898 3        22.236 3
G15  20586728.555 6 108183999.485 6     -1530.504 6        36.438 6  20586724.734 3  84299221.449 3     -1192.637 3        18.161 3
> 2020 08 27 08 51 13.0000000  0  3       0.000000000000
G05  23966755.922 7 125946152.188 7     -2288.717 7        44.742 7  23966757.336 5  98139864.375 5     -1783.695 5        35.934 5
G13  22643873.680 7 118994357.277 7     -2953.873 7        42.607 7  22643872.547 3  92722879.202 3     -2301.566 3        22.043 3
G15  20587020.738 6 108185530.536 6     -1531.979 6        36.635 6  20587016.117 3  84300414.484 3     -1193.734 3        18.618 3
> 2020 08 27 08 51 14.0000000  0  3       0.000000000000
G05  23967191.836 7 125948440.586 7     -2288.625 7        44.932 7  23967192.895 6  98141647.531 6     -1783.014 6        36.092 6
G13  22644435.516 7 118997310.866 7     -2954.113 7        42.458 7  22644434.656 3  92725180.698 3     -2301.900 3        21.171 3
G15  20587312.563 6 108187061.576 6     -1531.596 6        36.231 6  20587307.367 3  84301607.491 3     -1193.443 3        19.032 3
> 2020 08 27 08 51 15.0000000  0  3       0.000000000000
G05  23967627.109 7 125950729.142 7     -2288.938 7        44.974 7  23967628.410 6  98143430.825 6     -1783.369 6        36.162 6
G13  22644997.855 7 119000264.526 7     -2953.664 7        42.407 7  22644996.793 3  92727482.241 3     -2301.533 3        21.841 3
G15  20587604.172 6 108188592.919 6     -1531.650 6        36.538 6  20587598.574 3  84302800.755 3     -1193.564 3        19.410 3
> 2020 08 27 08 51 16.0000000  0  3       0.000000000000
G05  23968063.059 7 125953017.977 7     -2288.119 7        44.845 7  23968064.047 6  98145214.339 6     -1783.324 6        36.022 6
G13  22645559.582 7 119003218.492 7     -2953.432 7        42.304 7  22645558.840 3  92729784.030 3     -2301.352 3        21.629 3
G15  20587895.883 6 108190124.766 6     -1532.611 6        36.231 6  20587890.047 3  84303994.414 3     -1194.184 3        19.410 3
> 2020 08 27 08 51 17.0000000  0  3       0.000000000000
G05  23968498.406 7 125955307.105 7     -2289.578 7        44.946 7  23968499.551 6  98146998.079 6     -1784.504 6        36.053 6
G13  22646122.281 7 119006172.676 7     -2954.227 7        42.433 7  22646121.164 3  92732085.992 3     -2301.984 3        22.043 3
G15  20588187.281 6 108191657.006 6     -1533.309 6        36.538 6  20588181.641 3  84305188.336 3     -1194.719 3        20.080 3
> 2020 08 27 08 51 18.0000000  0  3       0.000000000000
G05  23968934.203 7 125957596.120 7     -2289.283 7        44.974 7  23968935.191 6  98148781.717 6     -1783.541 6        36.092 6
G13  22646684.141 7 119009126.772 7     -2954.244 7        42.382 7  22646683.367 3  92734387.877 3     -2302.018 3        22.043 3
G15  20588478.410 6 108193189.293 6     -1531.822 6        36.438 6  20588473.316 3  84306382.326 3     -1193.658 3        20.379 3
> 2020 08 27 08 51 19.0000000  0  3       0.000000000000
G05  23969369.461 7 125959885.474 7     -2289.098 7        45.058 7  23969370.918 6  98150565.624 6     -1783.631 6        36.245 6
G13  22647246.320 7 119012081.127 7     -2954.430 7        42.458 7  22647245.504 3  92736689.986 3     -2302.186 3        22.420 3
G15  20588770.004 6 108194722.099 6     -1531.910 6        36.538 6  20588764.965 3  84307576.727 3     -1193.711 3        20.379 3
> 2020 08 27 08 51 20.0000000  0  3       0.000000000000
G05  23969805.199 7 125962175.004 7     -2289.969 7        45.168 7  23969806.516 6  98152349.693 6     -1784.902 6        36.200 6
G13  22647807.836 7 119015035.649 7     -2955.398 7        42.382 7  22647807.750 3  92738992.198 3     -2302.871 3        22.768 3
G15  20589061.934 6 108196255.287 6     -1533.990 6        36.731 6  20589056.754 3  84308771.435 3     -1195.430 3        20.080 3
> 2020 08 27 08 51 21.0000000  0  3       0.000000000000
G05  23970240.688 7 125964464.502 7     -2289.471 7        45.222 7  23970242.176 6  98154133.701 6     -1783.906 6        36.245 6
G13  22648370.820 7 119017990.075 7     -2954.080 7        42.278 7  22648369.875 3  92741294.354 3     -2301.855 3        22.420 3
G15  20589354.617 6 108197788.533 6     -1533.533 6        37.263 6  20589348.535 3  84309966.160 3     -1195.039 3        20.379 3
> 2020 08 27 08 51 22.0000000  0  3       0.000000000000
G05  23970676.781 7 125966754.302 7     -2289.869 7        45.195 7  23970677.996 6  98155917.967 6     -1784.242 6        36.371 6
G13  22648933.547 7 119020944.828 7     -2955.221 7        42.330 7  22648932.348 3  92743596.746 3     -2302.758 3        22.932 3
G15  20589646.473 6 108199322.297 6     -1534.400 6        37.346 6  20589640.449 3  84311161.300 3     -1195.609 3        19.410 3
> 2020 08 27 08 51 23.0000000  0  3       0.000000000000
G05  23971112.020 7 125969044.311 7     -2290.604 7        45.141 7  23971113.781 6  98157702.375 6     -1784.813 6        36.549 6
G13  22649495.855 7 119023899.712 7     -2955.486 7        42.304 7  22649494.668 3  92745899.260 3     -2302.938 3        23.532 3
G15  20589938.336 6 108200856.398 6     -1534.646 6        37.507 6  20589932.527 3  84312356.688 3     -1195.848 3        19.032 3
> 2020 08 27 08 51 24.0000000  0  3       0.000000000000
G05  23971548.398 7 125971334.163 7     -2289.871 7        45.327 7  23971549.559 6  98159486.683 6     -1784.543 6        36.528 6
G13  22650058.156 7 119026854.432 7     -2954.480 7        42.225 7  22650056.910 3  92748201.634 3     -2302.102 3        22.932 3
G15  20590230.051 6 108202390.546 6     -1534.344 6        37.507 6  20590224.340 3  84313552.148 3     -1195.559 3        18.618 3
> 2020 08 27 08 51 25.0000000  0  3       0.000000000000
G05  23971984.191 7 125973624.341 7     -2290.174 7        45.248 7  23971985.406 6  98161271.229 6     -1784.666 6        36.687 6
G13  22650619.867 6 119029809.438 6     -2954.881 6        41.978 6  22650619.324 3  92750504.237 3     -2302.498 3        22.932 3
G15  20590522.320 6 108203925.185 6     -1534.959 6        37.585 6  20590516.395 3  84314747.956 3     -1196.072 3        19.410 3
> 2020 08 27 08 51 26.0000000  0  3       0.000000000000
G05  23972420.004 7 125975914.698 7     -2290.307 7        45.314 7  23972421.180 6  98163055.934 6     -1784.895 6        36.639 6
G13  22651182.461 7 119032764.590 7     -2955.307 7        42.006 7  22651181.789 3  92752806.963 3     -2302.844 3        22.420 3
G15  20590814.184 6 108205460.105 6     -1534.545 6        37.662 6  20590808.461 3  84315943.985 3     -1195.734 3        19.758 3
> 2020 08 27 08 51 27.0000000  0  3       0.000000000000
G05  23972855.680 7 125978205.094 7     -2291.066 7        45.340 7  23972857.012 6  98164840.632 6     -1784.850 6        36.794 6
G13  22651744.199 6 119035719.733 6     -2954.973 6        41.864 6  22651744.230 3  92755109.666 3     -2302.545 3        22.236 3
G15  20591105.906 6 108206995.276 6     -1535.891 6        37.885 6  20591100.570 3  84317140.229 3     -1196.822 3        20.080 3
> 2020 08 27 08 51 28.0000000  0  3       0.000000000000
G05  23973291.977 7 125980495.760 7     -2290.982 7        45.469 7  23973292.805 6  98166625.591 6     -1785.180 6        36.963 6
G13  22652306.703 6 119038675.136 6     -2955.455 6        41.747 6  22652306.887 3  92757412.589 3     -2303.051 3        22.043 3
G15  20591398.395 6 108208530.896 6     -1536.840 6        37.885 6  20591392.656 3  84318336.843 3     -1197.582 3        20.080 3
> 2020 08 27 08 51 29.0000000  0  3       0.000000000000
G05  23973727.117 7 125982786.573 7     -2291.451 7        45.531 7  23973728.777 6  98168410.637 6     -1785.707 6        36.963 6
G13  22652868.621 6 119041630.632 6     -2955.592 6        41.470 6  22652869.336 3  92759715.562 3     -2303.068 3        22.043 3
G15  20591690.445 6 108210066.781 6     -1537.193 6        37.812 6  20591685.020 3  84319533.646 3     -1197.797 3        20.080 3
> 2020 08 27 08 51 30.0000000  0  3       0.000000000000
G05  23974163.273 7 125985077.251 7     -2290.600 7        45.431 7  23974164.703 6  98170195.564 6     -1784.646 6        37.076 6
G13  22653431.273 6 119044585.990 6     -2955.014 6        41.438 6  22653431.746 3  92762018.439 3     -2302.654 3        21.841 3
G15  20591982.508 6 108211602.670 6     -1535.482 6        38.027 6  20591977.297 3  84320730.451 3     -1196.502 3        19.758 3
> 2020 08 27 08 51 31.0000000  0  3       0.000000000000
G05  23974599.363 7 125987368.178 7     -2291.193 7        45.469 7  23974600.707 6  98171980.701 6     -1785.369 6        37.063 6
G13  22653993.855 6 119047541.528 6     -2955.490 6        41.276 6  22653994.141 3  92764321.467 3     -2303.006 3        22.043 3
G15  20592275.363 6 108213139.030 6     -1536.605 6        37.885 6  20592269.539 3  84321927.630 3     -1197.361 3        18.618 3
> 2020 08 27 08 51 32.0000000  0  3       0.000000000000
G05  23975035.895 7 125989659.516 7     -2291.666 7        45.481 7  23975036.711 6  98173766.155 6     -1785.553 6        37.094 6
G13  22654555.594 6 119050497.517 6     -2956.588 6        41.242 6  22654556.770 3  92766624.818 3     -2303.836 3        21.841 3
G15  20592567.230 6 108214675.969 6     -1537.701 6        38.027 6  20592562.051 3  84323125.232 3     -1198.268 3        18.161 3
> 2020 08 27 08 51 33.0000000  0  3       0.000000000000
G05  23975470.797 7 125991951.120 7     -2291.400 7        45.327 7  23975472.832 6  98175551.811 6     -1785.283 6        37.026 6
G13  22655118.707 6 119053453.669 6     -2956.303 6        41.072 6  22655119.164 3  92768928.315 3     -2303.604 3        22.598 3
G15  20592859.469 6 108216213.289 6     -1536.850 6        37.812 6  20592854.648 3  84324323.136 3     -1197.510 3        19.032 3
> 2020 08 27 08 51 34.0000000  0  3       0.000000000000
G05  23975907.391 7 125994242.938 7     -2291.850 7        45.519 7  23975908.980 6  98177337.655 6     -1786.043 6        37.149 6
G13  22655681.223 6 119056410.036 6     -2956.889 6        41.242 6  22655681.723 3  92771231.967 3     -2304.088 3        22.768 3
G15  20593151.684 6 108217750.997 6     -1537.689 6        37.885 6  20593147.246 3  84325521.345 3     -1198.172 3        18.161 3
> 2020 08 27 08 51 35.0000000  0  3       0.000000000000
G05  23976343.621 7 125996534.691 7     -2292.232 7        45.519 7  23976345.051 6  98179123.440 6     -1786.256 6        36.969 6
G13  22656243.656 6 119059366.282 6     -2956.822 6        41.242 6  22656244.301 3  92773535.520 3     -2304.010 3        22.043 3
G15  20593444.391 6 108219288.844 6     -1538.951 6        38.232 6  20593439.926 3  84326719.666 3     -1199.145 3        18.618 3
> 2020 08 27 08 51 36.0000000  0  3       0.000000000000
G05  23976780.066 7 125998826.710 7     -2291.791 7        45.288 7  23976781.082 6  98180909.426 6     -1785.566 6        36.943 6
G13  22656806.453 6 119062322.773 6     -2956.518 6        41.141 6  22656806.883 3  92775839.279 3     -2303.770 3        22.236 3
G15  20593737.602 6 108220827.100 6     -1538.588 6        38.232 6  20593732.750 3  84327918.311 3     -1198.965 3        19.410 3
> 2020 08 27 08 51 37.0000000  0  3       0.000000000000
G05  23977216.391 7 126001118.679 7     -2291.871 7        45.443 7  23977217.309 6  98182695.374 6     -1785.916 6        36.898 6
G13  22657369.129 6 119065279.188 6     -2956.168 6        41.342 6  22657369.445 3  92778142.969 3     -2303.514 3        22.236 3
G15  20594030.691 6 108222365.449 6     -1539.098 6        38.428 6  20594025.496 3  84329117.026 3     -1199.412 3        19.032 3
> 2020 08 27 08 51 38.0000000  0  3       0.000000000000
G05  23977652.555 7 126003410.802 7     -2292.301 7        45.544 7  23977653.516 6  98184481.450 6     -1786.264 6        36.898 6
G13  22657931.930 6 119068235.741 6     -2956.893 6        41.470 6  22657932.016 3  92780446.772 3     -2304.096 3        22.598 3
G15  20594323.766 6 108223904.121 6     -1538.941 6        38.298 6  20594318.199 3  84330315.992 3     -1199.174 3        20.660 3
> 2020 08 27 08 51 39.0000000  0  3       0.000000000000
G05  23978088.430 7 126005703.509 7     -2292.602 7        45.568 7  23978089.875 6  98186267.966 6     -1786.203 6        36.761 6
G13  22658494.582 6 119071192.810 6     -2956.703 6        41.502 6  22658494.797 3  92782750.993 3     -2303.879 3        22.236 3
G15  20594616.547 6 108225443.545 6     -1539.320 6        38.232 6  20594611.180 3  84331515.546 3     -1199.465 3        20.379 3
> 2020 08 27 08 51 40.0000000  0  3       0.000000000000
G05  23978524.973 7 126007996.215 7     -2293.154 7        45.469 7  23978526.090 6  98188054.482 6     -1786.793 6        36.988 6
G13  22659057.477 6 119074149.890 6     -2957.744 6        41.747 6  22659057.508 3  92785055.205 3     -2304.742 3        22.598 3
G15  20594909.426 6 108226983.151 6     -1540.889 6        38.616 6  20594904.219 3  84332715.252 3     -1200.699 3        20.923 3
> 2020 08 27 08 51 41.0000000  0  3       0.000000000000
G05  23978961.195 7 126010288.965 7     -2292.828 7        45.519 7  23978962.441 6  98189841.049 6     -1786.865 6        36.963 6
G13  22659620.336 6 119077106.976 6     -2957.379 6        41.806 6  22659620.551 3  92787359.413 3     -2304.463 3        22.768 3
G15  20595202.125 6 108228522.935 6     -1540.523 6        38.491 6  20595197.273 3  84333915.091 3     -1200.498 3        21.406 3
> 2020 08 27 08 51 42.0000000  0  3       0.000000000000
G05  23979397.656 7 126012581.675 7     -2292.871 7        45.443 7  23979398.641 6  98191627.569 6     -1786.598 6        37.001 6
G13  22660183.000 6 119080063.964 6     -2957.461 6        41.717 6  22660183.246 3  92789663.552 3     -2304.527 3        22.043 3
G15  20595494.777 6 108230062.870 6     -1540.760 6        38.165 6  20595490.414 3  84335115.038 3     -1200.602 3        21.171 3
> 2020 08 27 08 51 43.0000000  0  3       0.000000000000
G05  23979834.074 7 126014875.070 7     -2293.475 7        45.443 7  23979835.004 6  98193414.636 6     -1787.295 6        37.026 6
G13  22660745.484 6 119083021.620 6     -2957.596 6        41.747 6  22660746.055 3  92791968.207 3     -2304.619 3        21.841 3
G15  20595787.676 6 108231603.601 6     -1540.311 6        38.027 6  20595783.711 3  84336315.608 3     -1200.225 3        21.171 3
> 2020 08 27 08 51 44.0000000  0  3       0.000000000000
G05  23980269.879 7 126017168.415 7     -2293.621 7        45.556 7  23980271.496 6  98195201.637 6     -1786.711 6        37.026 6
G13  22661308.785 6 119085979.188 6     -2957.313 6        41.626 6  22661308.844 3  92794272.816 3     -2304.465 3        22.043 3
G15  20596081.250 6 108233144.495 6     -1540.945 6        38.298 6  20596076.914 3  84337516.308 3     -1200.717 3        20.660 3
> 2020 08 27 08 51 45.0000000  0  3       0.000000000000
G05  23980706.574 7 126019461.731 7     -2293.701 7        45.469 7  23980707.836 6  98196988.646 6     -1786.869 6        36.879 6
G13  22661871.402 6 119088936.717 6     -2958.057 6        41.595 6  22661871.703 3  92796577.399 3     -2304.994 3        21.629 3
G15  20596374.281 6 108234685.522 6     -1541.455 6        38.165 6  20596370.289 3  84338717.100 3     -1201.127 3        20.379 3
> 2020 08 27 08 51 46.0000000  0  3       0.000000000000
G05  23981143.047 7 126021755.401 7     -2294.201 7        45.418 7  23981144.305 6  98198775.926 6     -1787.471 6        36.801 6
G13  22662433.938 6 119091894.552 6     -2958.381 6        41.626 6  22662434.480 3  92798882.198 3     -2305.166 3        22.043 3
G15  20596667.945 6 108236227.060 6     -1542.326 6        38.298 6  20596663.766 3  84339918.306 3     -1201.846 3        20.660 3
> 2020 08 27 08 51 47.0000000  0  3       0.000000000000
G05  23981579.254 7 126024049.110 7     -2293.721 7        45.327 7  23981580.957 6  98200563.233 6     -1787.207 6        36.687 6
G13  22662996.352 6 119094852.374 6     -2957.568 6        41.502 6  22662997.352 3  92801187.001 3     -2304.609 3        22.420 3
G15  20596961.348 6 108237768.770 6     -1541.924 6        38.165 6  20596957.125 3  84341119.638 3     -1201.602 3        21.629 3
> 2020 08 27 08 51 48.0000000  0  3       0.000000000000
G05  23982016.250 7 126026342.965 7     -2293.613 7        45.392 7  23982017.480 6  98202350.650 6     -1787.352 6        36.680 6
G13  22663559.555 6 119097810.318 6     -2957.910 6        41.502 6  22663560.301 3  92803491.893 3     -2304.871 3        22.236 3
G15  20597254.395 6 108239310.783 6     -1541.777 6        38.364 6  20597250.715 3  84342321.211 3     -1201.336 3        20.923 3
> 2020 08 27 08 51 49.0000000  0  3       0.000000000000
G05  23982452.281 7 126028637.126 7     -2293.947 7        45.405 7  23982453.996 6  98204138.313 6     -1787.977 6        36.754 6
G13  22664123.508 6 119100768.527 6     -2958.264 6        41.470 6  22664123.195 3  92805796.998 3     -2305.184 3        21.841 3
G15  20597547.758 6 108240853.290 6     -1542.912 6        38.428 6  20597544.141 3  84343523.159 3     -1202.275 3        20.923 3
> 2020 08 27 08 51 50.0000000  0  3       0.000000000000
G05  23982888.980 7 126030931.458 7     -2294.555 7        45.366 7  23982890.672 6  98205926.101 6     -1788.152 6        36.653 6
G13  22664685.559 6 119103726.902 6     -2959.145 6        41.533 6  22664686.117 3  92808102.189 3     -2305.771 3        20.660 3
G15  20597841.512 6 108242396.114 6     -1542.992 6        38.491 6  20597837.906 3  84344725.369 3     -1202.293 3        20.379 3
> 2020 08 27 08 51 51.0000000  0  3       0.000000000000
G05  23983325.836 7 126033225.896 7     -2294.801 7        45.288 7  23983327.324 6  98207713.969 6     -1788.256 6        36.619 6
G13  22665248.617 6 119106685.305 6     -2958.336 6        41.470 6  22665249.035 3  92810407.450 3     -2305.248 3        21.406 3
G15  20598134.988 6 108243939.231 6     -1544.508 6        38.298 6  20598131.609 3  84345927.807 3     -1203.529 3        20.660 3
> 2020 08 27 08 51 52.0000000  0  3       0.000000000000
G05  23983762.508 7 126035520.324 7     -2294.477 7        45.248 7  23983764.012 6  98209501.810 6     -1787.725 6        36.500 6
G13  22665811.641 6 119109643.724 6     -2958.947 6        41.276 6  22665812.027 3  92812712.709 3     -2305.713 3        21.406 3
G15  20598429.855 6 108245482.501 6     -1544.262 6        37.885 6  20598425.422 3  84347130.348 3     -1203.252 3        21.406 3
> 2020 08 27 08 51 53.0000000  0  3       0.000000000000
G05  23984199.480 7 126037814.949 7     -2294.725 7        45.168 7  23984200.625 6  98211289.851 6     -1788.287 6        36.563 6
G13  22666374.824 6 119112602.278 6     -2958.475 6        41.374 6  22666375.109 3  92815018.068 3     -2305.240 3        20.923 3
G15  20598723.309 6 108247026.111 6     -1544.061 6        38.096 6  20598719.289 3  84348333.174 3     -1203.131 3        21.406 3
> 2020 08 27 08 51 54.0000000  0  3       0.000000000000
G05  23984636.082 7 126040109.809 7     -2294.266 7        45.141 7  23984637.297 6  98213078.054 6     -1787.768 6        36.429 6
G13  22666937.773 6 119115561.080 6     -2959.031 6        41.374 6  22666938.246 3  92817323.622 3     -2305.717 3        21.171 3
G15  20599016.961 6 108248570.169 6     -1544.676 6        37.885 6  20599013.297 3  84349536.302 3     -1203.588 3        22.420 3
> 2020 08 27 08 51 55.0000000  0  3       0.000000000000
G05  23985072.199 7 126042404.627 7     -2294.973 7        45.182 7  23985073.902 6  98214866.211 6     -1788.238 6        36.312 6
G13  22667500.527 6 119118519.748 6     -2958.900 6        41.438 6  22667501.387 3  92819629.059 3     -2305.621 3        21.629 3
G15  20599310.988 6 108250114.295 6     -1545.207 6        37.956 6  20599307.270 3  84350739.497 3     -1204.059 3        22.598 3
> 2020 08 27 08 51 56.0000000  0  3       0.000000000000
G05  23985509.250 7 126044699.758 7     -2295.080 7        45.031 7  23985510.641 6  98216654.626 6     -1788.289 6        36.327 6
G13  22668064.074 6 119121478.733 6     -2959.475 6        41.309 6  22668064.559 3  92821934.764 3     -2306.043 3        20.660 3
G15  20599604.805 6 108251658.905 6     -1545.275 6        38.027 6  20599601.055 3  84351943.095 3     -1204.090 3        22.598 3
> 2020 08 27 08 51 57.0000000  0  3       0.000000000000
G05  23985946.289 7 126046994.798 7     -2294.926 7        45.086 7  23985947.348 6  98218442.968 6     -1788.385 6        36.407 6
G13  22668627.316 6 119124437.574 6     -2959.027 6        41.242 6  22668627.617 3  92824240.350 3     -2305.785 3        21.629 3
G15  20599898.750 6 108253203.577 6     -1545.121 6        38.096 6  20599895.188 3  84353146.724 3     -1203.971 3        22.768 3
> 2020 08 27 08 51 58.0000000  0  3       0.000000000000
G05  23986382.414 7 126049290.150 7     -2295.031 7        45.058 7  23986384.305 6  98220231.561 6     -1788.506 6        36.422 6
G13  22669189.938 6 119127396.688 6     -2958.527 6        41.502 6  22669190.781 3  92826546.151 3     -2305.225 3        21.406 3
G15  20600192.500 6 108254748.737 6     -1545.109 6        38.616 6  20600189.281 3  84354350.730 3     -1204.014 3        22.236 3
> 2020 08 27 08 51 59.0000000  0  3       0.000000000000
G05  23986819.156 7 126051585.631 7     -2295.443 7        45.058 7  23986821.129 6  98222020.243 6     -1788.932 6        36.465 6
G13  22669753.457 6 119130355.917 6     -2959.252 6        41.438 6  22669753.957 3  92828852.041 3     -2305.924 3        20.660 3
G15  20600487.152 6 108256294.181 6     -1545.736 6        38.428 6  20600483.316 3  84355555.006 3     -1204.557 3        21.171 3
> 2020 08 27 08 52  0.0000000  0  3       0.000000000000
G05  23987256.387 7 126053881.268 7     -2296.027 7        45.045 7  23987258.020 6  98223809.040 6     -1789.006 6        36.275 6
G13  22670316.754 6 119133315.275 6     -2959.621 6        41.406 6  22670317.023 3  92831158.021 3     -2306.252 3        20.923 3
G15  20600781.289 6 108257839.941 6     -1546.164 6        38.554 6  20600777.629 3  84356759.514 3     -1204.826 3        20.923 3
> 2020 08 27 08 52  1.0000000  0  3       0.000000000000
G05  23987692.617 7 126056176.724 7     -2295.227 7        45.072 7  23987694.793 6  98225597.729 6     -1788.611 6        36.116 6
G13  22670879.617 6 119136274.407 6     -2958.859 6        41.438 6  22670880.176 3  92833463.862 3     -2305.584 3        21.171 3
G15  20601075.145 6 108259385.691 6     -1545.246 6        38.298 6  20601071.824 3  84357964.016 3     -1204.119 3        20.660 3
> 2020 08 27 08 52  2.0000000  0  3       0.000000000000
G05  23988129.758 7 126058472.515 7     -2295.465 7        45.003 7  23988131.773 6  98227386.638 6     -1788.906 6        36.200 6
G13  22671442.820 6 119139233.817 6     -2959.586 6        41.470 6  22671443.266 3  92835769.895 3     -2306.172 3        21.841 3
G15  20601369.047 6 108260931.891 6     -1545.914 6        38.554 6  20601366.215 3  84359168.818 3     -1204.531 3        21.841 3
> 2020 08 27 08 52  3.0000000  0  3       0.000000000000
G05  23988566.781 7 126060768.259 7     -2296.461 7        44.831 7  23988568.527 6  98229175.535 6     -1789.654 6        36.177 6
G13  22672006.484 6 119142193.182 6     -2960.855 6        41.438 6  22672006.355 3  92838075.881 3     -2307.096 3        22.043 3
G15  20601663.840 6 108262478.264 6     -1547.201 6        38.298 6  20601660.422 3  84360373.787 3     -1205.611 3        21.406 3
> 2020 08 27 08 52  4.0000000  0  3       0.000000000000
G05  23989003.152 7 126063064.092 7     -2295.396 7        44.903 7  23989005.387 6  98230964.489 6     -1788.664 6        36.215 6
G13  22672569.348 6 119145152.576 6     -2959.146 6        41.502 6  22672569.723 3  92840381.896 3     -2305.793 3        22.236 3
G15  20601957.691 6 108264024.897 6     -1547.682 6        38.298 6  20601954.961 3  84361578.963 3     -1205.969 3        21.841 3
> 2020 08 27 08 52  5.0000000  0  3       0.000000000000
G05  23989440.453 7 126065360.174 7     -2295.865 7        44.621 7  23989442.285 6  98232753.623 6     -1788.871 6        36.030 6
G13  22673132.426 6 119148112.151 6     -2958.502 6        41.342 6  22673132.840 3  92842688.066 3     -2305.258 3        22.932 3
G15  20602252.617 6 108265571.844 6     -1546.590 6        38.165 6  20602249.340 3  84362784.379 3     -1205.199 3        21.841 3
> 2020 08 27 08 52  6.0000000  0  3       0.000000000000
G05  23989877.691 7 126067656.371 7     -2295.781 7        44.682 7  23989879.379 6  98234542.883 6     -1789.264 6        36.245 6
G13  22673695.441 6 119151071.870 6     -2959.590 6        41.175 6  22673696.086 3  92844994.326 3     -2306.139 3        22.236 3
G15  20602546.617 6 108267119.138 6     -1546.621 6        38.027 6  20602543.844 3  84363990.063 3     -1205.143 3        21.629 3
> 2020 08 27 08 52  7.0000000  0  3       0.000000000000
G05  23990314.555 7 126069952.853 7     -2296.844 7        44.712 7  23990316.289 6  98236332.333 6     -1789.660 6        36.154 6
G13  22674259.086 6 119154031.810 6     -2960.301 6        41.276 6  22674259.359 3  92847300.773 3     -2306.691 3        22.043 3
