     3.02           OBSERVATION DATA    M (MIXED)           RINEX VERSION / TYPE
Assistant 1.0       StaticToRinex       20200827 154847 LCL PGM / RUN BY / DATE 
       G = GPS       R = GLONASS       C = COMPASS          COMMENT             
       S = SBAS      J = QZSS          E = GALILEO          COMMENT             
0000                                                        MARKER NAME         
1                                                           MARKER NUMBER       
                                                            MARKER TYPE         
                                                            OBSERVER / AGENCY
                                                            REC # / TYPE / VERS 
0                                                           ANT # / TYPE        
 -2272585.2080  5008175.9268  3219433.5917                  APPROX POSITION XYZ 
        0.0000        0.0000        0.0000                  ANTENNA: DELTA H/E/N
G   16 C1C L1C D1C S1C C2Y L2Y D2Y S2Y C2X L2X D2X S2X C5Q  SYS / # / OBS TYPES 
       L5Q D5Q S5Q                                          SYS / # / OBS TYPES 
R    8 C1P L1P D1P S1P C2P L2P D2P S2P                      SYS / # / OBS TYPES 
C   12 C1I L1I D1I S1I C7I L7I D7I S7I C6I L6I D6I S6I      SYS / # / OBS TYPES 
J   12 C1C L1C D1C S1C C2X L2X D2X S2X C5Q L5Q D5Q S5Q      SYS / # / OBS TYPES 
E   16 C1X L1X D1X S1X C5X L5X D5X S5X C7X L7X D7X S7X C6C  SYS / # / OBS TYPES 
       L6C D6C S6C                                          SYS / # / OBS TYPES 
DBHZ                                                        COMMENT             
     1.000                                                  INTERVAL            
  2020    08    27    07    38   57.0000000     GPS         TIME OF FIRST OBS   
  2020    08    27    07    44   11.0000000     GPS         TIME OF LAST OBS    
     0                                                      RCV CLOCK OFFS APPL 
G L1C  0.00000                                              SYS / PHASE SHIFT   
G L2Y  0.00000                                              SYS / PHASE SHIFT   
G L2X -0.25000                                              SYS / PHASE SHIFT   
G L5Q -0.25000                                              SYS / PHASE SHIFT   
R L1P  0.25000                                              SYS / PHASE SHIFT   
R L2P  0.25000                                              SYS / PHASE SHIFT   
C L1I  0.00000                                              SYS / PHASE SHIFT   
C L7I  0.00000                                              SYS / PHASE SHIFT   
C L6I  0.00000                                              SYS / PHASE SHIFT   
J L1C  0.00000                                              SYS / PHASE SHIFT   
J L2X  0.00000                                              SYS / PHASE SHIFT   
J L5Q -0.25000                                              SYS / PHASE SHIFT   
E L1X  0.00000                                              SYS / PHASE SHIFT   
E L5X  0.00000                                              SYS / PHASE SHIFT   
E L7X  0.00000                                              SYS / PHASE SHIFT   
E L6C -0.50000                                              SYS / PHASE SHIFT   
  6 R01  1 R02 -4 R08  6 R10 -7 R11  0 R17  4               GLONASS SLOT / FRQ #
 C1C        0 C1P        0 C2C        0 C2P        0        GLONASS COD/PHS/BIS 
    18                                                      LEAP SECONDS        
*** Above antenna height is from mark to PHASE CENTER.      COMMENT             
     0     0        0.0000        ANT MEASURE TYPE/HEIGT    COMMENT             
    0.0000    0.0000    0.0000    0.0000    0.0000          COMMENT             
                    BASE STATION                            COMMENT             
                                                            END OF HEADER       
> 2020 08 27 07 38 57.0000000  0 11       0.000000000000
C06  36223744.949 6 188626537.157 6       190.719 6        38.096 6  36223740.297 5 145858013.579 5       148.809 5        31.564 5  36223742.301 6 153274495.287 6       155.201 6        36.014 6
C08  36083234.117 6 187894861.502 6       134.879 6        38.795 6  36083233.938 6 145292216.458 6       103.906 6        40.189 6  36083230.191 5 152679955.243 5       107.525 5        33.527 5
C13  35761826.195 6 186221175.049 6       489.547 6        36.014 6  35761829.879 5 143998124.883 5       378.848 5        33.325 5                                                                
C16  36469952.484 5 189908617.437 5       379.918 5        35.785 5                                                                                                                                
C20  22833148.020 6 118898210.121 6     -1159.184 6        39.188 6                                                                  22833137.578 5  96614480.066 5      -943.119 5        32.144 5
C23  27105189.293 5 141143788.851 5      -792.660 5        30.895 5                                                                                                                                
C32  26380891.859 5 137372216.927 5     -2177.387 5        30.895 5                                                                                                                                
C37  25313696.207 7 131815060.994 7      1185.777 7        47.403 7                                                                  25313698.750 7 107110569.552 7       963.346 7        46.702 7
J01  39542005.801 7 207794532.750 7      -227.949 7        42.483 7  39542005.227 7 161917915.817 7      -177.666 7        42.117 7  39542008.254 7 155171328.853 7      -170.357 7        44.636 7
E05                                                                  24082090.980 5  94503298.759 5     -1038.404 5        34.727 5  24082086.516 5  96968580.334 5     -1064.766 5        32.144 5  24082086.301 5 102720946.296 5     -1129.066 5        34.417 5
E09  25962726.789 6 136435089.579 6     -2413.613 6        41.406 6                                                                  25962738.543 5 104541210.146 5     -1848.340 5        32.144 5  25962730.652 5 110742731.031 5     -1960.221 5        35.154 5
> 2020 08 27 07 38 58.0000000  0 19       0.000000000000
G05  22308762.617 6 117233315.854 6     -1757.867 6        38.096 6  22308773.621 3  91350749.583 3     -1369.023 3        20.923 3  22308764.691 4  91350652.291 4     -1369.023 4        28.209 4                                                                
G13  20626834.695 7 108394742.819 7     -1649.156 7        44.757 7  20626832.535 5  84463419.137 5     -1285.000 5        30.292 5                                                                                                                                
G15  20041907.113 7 105320866.982 7       395.766 7        42.483 7  20041908.961 5  82068194.506 5       308.359 5        33.302 5                                                                                                                                
G29  21884184.559 5 115002193.483 5     -1793.785 5        32.891 5  21884186.746 2  89612090.023 2     -1397.793 2        16.400 2                                                                                                                                
G30  24820787.668 5 130434075.467 5     -1752.066 5        35.785 5  24820795.480 3 101636967.738 3     -1364.746 3        20.379 3  24820793.676 4 101637044.478 4     -1364.688 4        27.311 4  24820793.105 6  97402094.366 6     -1308.154 6        41.406 6
R08                                                                  24422926.531 5 101720629.799 5     -2283.814 5        35.154 5
R11  23349074.328 6 124770490.424 6      2392.088 6        37.737 6                                                                
R24  19429556.816 5 103898822.480 5     -1526.680 5        34.253 5                                                                
C06  36223708.090 6 188626345.701 6       190.582 6        38.027 6  36223703.547 5 145857865.532 5       148.852 5        31.242 5  36223705.621 6 153274339.697 6       155.670 6        36.014 6
C08  36083208.242 6 187894726.075 6       134.547 6        38.676 6  36083207.738 6 145292111.722 6       104.418 6        39.926 6  36083204.262 5 152679845.118 5       110.768 5        33.720 5
C13  35761731.848 6 186220684.123 6       490.797 6        36.124 6  35761735.211 5 143997745.273 5       379.164 5        33.325 5                                                                
C16  36469879.316 5 189908236.226 5       382.047 5        35.544 5                                                                                                                                
C20  22833370.762 6 118899368.900 6     -1159.693 6        39.597 6                                                                  22833360.145 5  96615421.649 5      -941.811 5        31.864 5
C23  27105341.922 5 141144580.874 5      -792.643 5        30.103 5                                                                                                                                
C32  26381310.070 5 137374395.037 5     -2177.994 5        31.242 5                                                                                                                                
C37  25313468.145 7 131813874.363 7      1186.070 7        47.483 7                                                                  25313470.820 7 107109605.311 7       964.049 7        46.731 7
J01  39542049.109 7 207794759.192 7      -226.734 7        42.458 7  39542048.320 7 161918092.258 7      -176.621 7        42.117 7  39542051.477 7 155171497.956 7      -169.521 7        44.575 7
E05  24082350.355 5 126553581.343 5     -1389.098 5        31.242 5  24082355.398 5  94504336.268 5     -1038.252 5        34.417 5  24082350.844 5  96969644.862 5     -1063.727 5        32.407 5  24082350.844 5 102722073.958 5     -1127.639 5        34.253 5
E09  25963185.277 6 136437502.326 6     -2413.182 6        41.276 6                                                                  25963197.633 5 104543058.869 5     -1848.277 5        32.144 5  25963189.828 5 110744689.435 5     -1958.732 5        35.017 5
> 2020 08 27 07 38 59.0000000  0 18       0.000000000000
G05  22309097.211 6 117235073.794 6     -1756.889 6        38.027 6  22309107.656 3  91352119.441 3     -1369.994 3        21.629 3  22309099.641 4  91352022.153 4     -1370.014 4        28.161 4                                                                
G13  20627148.254 7 108396392.097 7     -1649.096 7        44.757 7  20627146.480 5  84464704.281 5     -1285.092 5        30.379 5                                                                                                                                
G15  20041831.750 7 105320470.914 7       396.100 7        42.304 7  20041833.508 5  82067885.893 5       308.639 5        33.074 5                                                                                                                                
G29  21884526.164 5 115003987.061 5     -1795.248 5        32.656 5  21884528.125 2  89613487.611 2     -1398.959 2        16.400 2                                                                                                                                
G30  24821121.258 5 130435827.251 5     -1753.451 5        35.666 5  24821128.887 3 101638332.759 3     -1365.600 3        21.406 3  24821127.055 4 101638409.499 4     -1365.639 4        27.069 4  24821126.410 6  97403402.493 6     -1308.314 6        41.595 6
R08  24423492.484 5 130786717.765 5     -2935.098 5        34.082 5  24423475.297 5 101722912.594 5     -2282.447 5        35.288 5
R11  23348627.199 6 124768096.972 6      2393.158 6        37.507 6                                                                
R24  19429841.891 5 103900349.418 5     -1527.797 5        33.905 5                                                                
C06  36223671.074 6 188626154.422 6       191.131 6        37.956 6  36223666.637 5 145857717.690 5       147.594 5        31.564 5  36223668.906 5 153274184.267 5       156.094 5        35.901 5
C08  36083182.277 6 187894590.824 6       135.682 6        38.736 6  36083182.102 6 145292007.162 6       104.273 6        39.926 6  36083178.242 5 152679735.255 5       109.531 5        33.720 5
C13  35761637.594 5 186220193.468 5       489.256 5        35.901 5  35761641.172 5 143997365.837 5       379.682 5        33.325 5                                                                
C16  36469806.387 5 189907855.274 5       380.994 5        35.785 5                                                                                                                                
C20  22833593.352 6 118900527.788 6     -1158.244 6        39.788 6                                                                  22833582.793 5  96616363.384 5      -942.129 5        32.144 5
C32  26381728.406 5 137376573.142 5     -2177.033 5        31.242 5                                                                                                                                
C37  25313240.277 7 131812688.211 7      1186.092 7        47.459 7                                                                  25313243.082 7 107108641.468 7       964.160 7        46.787 7
J01  39542092.223 7 207794985.683 7      -226.596 7        42.533 7  39542091.152 7 161918268.739 7      -176.537 7        42.006 7  39542094.469 7 155171667.062 7      -168.920 7        44.667 7
E05  24082614.691 5 126554970.987 5     -1390.189 5        31.864 5  24082619.930 5  94505373.949 5     -1038.100 5        34.727 5  24082615.273 5  96970709.567 5     -1063.070 5        32.144 5  24082615.449 5 102723201.893 5     -1127.887 5        34.575 5
E09  25963644.648 6 136439915.139 6     -2413.236 6        41.374 6                                                                  25963656.883 5 104544907.600 5     -1847.680 5        32.891 5  25963649.012 5 110746647.820 5     -1958.160 5        34.727 5
> 2020 08 27 07 39  0.0000000  0 18       0.000000000000
G05  22309431.531 6 117236832.276 6     -1758.283 6        37.812 6  22309441.793 3  91353489.655 3     -1370.313 3        22.420 3  22309434.395 4  91353392.375 4     -1370.332 4        28.441 4                                                                
G13  20627462.402 7 108398042.330 7     -1650.939 7        44.651 7  20627460.398 5  84465990.186 5     -1286.426 5        30.845 5                                                                                                                                
G15  20041756.688 7 105320075.834 7       394.744 7        42.117 7  20041758.418 5  82067578.043 5       307.520 5        33.012 5                                                                                                                                
G29  21884868.215 5 115005781.485 5     -1795.881 5        32.144 5  21884869.414 2  89614885.855 2     -1399.434 2        17.069 2                                                                                                                                
G30  24821454.582 5 130437579.855 5     -1752.600 5        35.418 5  24821462.320 3 101639698.468 3     -1366.113 3        21.406 3  24821461.090 4 101639775.211 4     -1366.133 4        27.192 4  24821460.055 6  97404711.332 6     -1309.834 6        41.470 6
R08  24424038.262 5 130789653.092 5     -2934.922 5        34.082 5  24424021.789 5 101725195.642 5     -2283.150 5        35.418 5
R11  23348178.520 6 124765704.340 6      2392.063 6        37.737 6                                                                
R24  19430128.992 5 103901877.647 5     -1530.240 5        34.727 5                                                                
C06  36223634.574 6 188625963.696 6       190.322 6        37.956 6  36223630.102 5 145857570.199 5       148.307 5        31.564 5  36223632.340 6 153274029.289 6       155.611 6        36.124 6
C08  36083156.438 6 187894456.113 6       135.166 6        38.616 6  36083156.297 6 145291903.008 6       103.971 6        39.926 6  36083152.402 5 152679625.806 5       109.576 5        33.720 5
C13  35761543.035 5 186219703.180 5       490.322 5        35.901 5  35761547.148 5 143996986.761 5       379.557 5        33.325 5                                                                
C16  36469733.434 5 189907474.826 5       381.104 5        35.544 5                                                                                                                                
C20  22833815.992 6 118901687.215 6     -1158.955 6        39.548 6                                                                  22833805.352 5  96617305.512 5      -941.498 5        32.407 5
C32  26382146.547 5 137378751.697 5     -2179.072 5        30.517 5                                                                                                                                
C37  25313012.965 7 131811502.830 7      1185.361 7        47.475 7                                                                  25313015.527 7 107107678.261 7       963.111 7        46.978 7
J01  39542135.355 7 207795212.463 7      -226.701 7        42.558 7  39542133.996 7 161918445.456 7      -176.465 7        42.090 7  39542137.578 7 155171836.424 7      -168.975 7        44.682 7
E05  24082878.543 5 126556361.094 5     -1389.006 5        32.144 5  24082884.453 5  94506412.040 5     -1038.154 5        35.017 5  24082879.801 5  96971774.821 5     -1064.018 5        31.564 5  24082880.043 5 102724330.241 5     -1128.049 5        34.727 5
E09  25964102.887 6 136442328.260 6     -2413.283 6        41.374 6                                                                  25964116.188 5 104546756.661 5     -1849.254 5        32.144 5  25964108.141 5 110748606.558 5     -1959.123 5        34.727 5
> 2020 08 27 07 39  1.0000000  0 18       0.000000000000
G05  22309766.613 6 117238590.854 6     -1758.609 6        37.812 6  22309775.973 3  91354859.964 3     -1370.643 3        22.598 3  22309768.691 4  91354762.696 4     -1370.604 4        28.531 4                                                                
G13  20627776.734 7 108399692.999 7     -1650.895 7        44.757 7  20627774.660 5  84467276.410 5     -1286.385 5        30.871 5                                                                                                                                
G15  20041681.238 7 105319681.304 7       393.852 7        42.034 7  20041683.254 5  82067270.612 5       306.877 5        33.167 5                                                                                                                                
G29  21885209.590 5 115007576.462 5     -1795.387 5        32.407 5  21885210.965 2  89616284.538 2     -1399.080 2        17.069 2                                                                                                                                
G30  24821788.090 5 130439332.964 5     -1752.672 5        35.544 5  24821795.988 3 101641064.514 3     -1365.447 3        21.841 3  24821794.383 4 101641141.270 4     -1365.525 4        27.131 4  24821793.746 6  97406020.462 6     -1309.164 6        41.717 6
R08  24424584.078 5 130792588.231 5     -2935.893 5        34.417 5  24424570.328 5 101727478.473 5     -2281.859 5        35.154 5
R11  23347730.738 6 124763312.079 6      2392.088 6        37.956 6                                                                
R24  19430413.840 5 103903406.648 5     -1529.766 5        34.417 5                                                                
C06  36223598.402 6 188625773.065 6       190.428 6        38.096 6  36223593.930 5 145857422.803 5       147.020 5        31.564 5  36223595.754 6 153273874.437 6       154.559 6        36.124 6
C08  36083130.930 6 187894321.557 6       133.904 6        38.554 6  36083130.750 6 145291798.948 6       103.660 6        40.231 6  36083126.500 5 152679516.430 5       110.438 5        33.720 5
C13  35761448.949 6 186219213.021 6       490.271 6        36.124 6  35761452.992 5 143996607.741 5       377.938 5        33.325 5                                                                
C16  36469660.559 5 189907094.568 5       379.217 5        35.544 5                                                                                                                                
C20  22834038.602 6 118902846.736 6     -1159.789 6        39.645 6                                                                  22834027.984 5  96618247.688 5      -942.045 5        32.144 5
C32  26382564.516 5 137380929.954 5     -2176.781 5        30.895 5                                                                                                                                
C37  25312785.266 7 131810317.814 7      1184.979 7        47.362 7                                                                  25312787.914 7 107106715.338 7       962.898 7        47.031 7
J01  39542178.387 7 207795439.161 7      -226.793 7        42.407 7  39542177.598 7 161918622.098 7      -176.268 7        42.171 7  39542180.738 7 155172005.711 7      -168.871 7        44.757 7
E05  24083143.582 5 126557751.427 5     -1389.527 5        31.864 5  24083148.941 5  94507450.225 5     -1037.602 5        35.017 5  24083144.297 5  96972840.140 5     -1065.168 5        31.864 5  24083144.609 5 102725458.785 5     -1128.557 5        34.575 5
E09  25964562.746 6 136444741.311 6     -2412.691 6        41.470 6                                                                  25964575.426 5 104548605.626 5     -1848.625 5        32.407 5  25964567.313 5 110750565.208 5     -1958.830 5        34.417 5
> 2020 08 27 07 39  2.0000000  0 19       0.000000000000
G05  22310101.172 6 117240349.723 6     -1757.947 6        37.812 6  22310110.199 3  91356230.543 3     -1370.818 3        22.932 3  22310103.820 4  91356133.273 4     -1370.877 4        28.256 4                                                                
G13  20628091.117 7 108401344.409 7     -1651.502 7        44.816 7  20628088.941 5  84468563.225 5     -1286.893 5        31.123 5                                                                                                                                
G15  20041606.266 7 105319287.507 7       393.809 7        42.117 7  20041608.281 5  82066963.758 5       306.779 5        33.121 5                                                                                                                                
G29  21885550.586 5 115009372.167 5     -1795.018 5        32.144 5  21885552.449 2  89617683.765 2     -1398.768 2        16.400 2                                                                                                                                
G30  24822122.645 5 130441086.753 5     -1752.049 5        35.544 5  24822129.855 3 101642431.125 3     -1366.268 3        21.406 3  24822127.652 4 101642507.882 4     -1366.287 4        27.192 4  24822127.504 6  97407330.124 6     -1309.773 6        41.806 6
R01  21180482.625 5 113221817.441 5     -2328.531 5        31.864 5                                                                
R08  24425131.945 5 130795523.337 5     -2932.922 5        34.575 5  24425117.191 5 101729761.362 5     -2281.891 5        34.727 5
R11  23347283.000 6 124760920.423 6      2391.996 6        38.027 6                                                                
R24  19430700.594 5 103904936.726 5     -1530.072 5        34.417 5                                                                
C06  36223561.777 6 188625582.784 6       190.191 6        38.027 6  36223557.199 5 145857275.602 5       148.844 5        31.564 5  36223559.125 6 153273719.813 6       154.088 6        36.231 6
C08  36083105.109 6 187894187.299 6       135.172 6        38.676 6  36083104.965 6 145291695.172 6       103.551 6        40.189 6  36083100.746 5 152679407.380 5       109.498 5        33.720 5
C13  35761354.875 5 186218723.086 5       490.465 5        35.901 5  35761358.988 5 143996228.902 5       378.473 5        32.891 5                                                                
C16  36469587.520 5 189906714.580 5       380.777 5        35.544 5                                                                                                                                
C20  22834261.262 6 118904006.511 6     -1159.027 6        39.834 6                                                                  22834250.473 5  96619190.088 5      -942.572 5        32.144 5
C32  26382982.637 5 137383108.568 5     -2179.184 5        30.895 5                                                                                                                                
C37  25312558.082 7 131809133.355 7      1184.879 7        47.329 7                                                                  25312560.457 7 107105752.876 7       962.506 7        46.915 7
J01  39542221.465 7 207795665.968 7      -226.150 7        42.330 7  39542220.535 7 161918798.854 7      -176.795 7        42.090 7  39542223.926 7 155172175.086 7      -168.914 7        44.590 7
E05  24083407.809 5 126559142.123 5     -1390.311 5        30.895 5  24083413.559 5  94508488.752 5     -1038.777 5        34.874 5  24083408.840 5  96973905.760 5     -1066.742 5        32.144 5  24083409.297 5 102726587.555 5     -1128.820 5        34.575 5
E09  25965021.578 6 136447154.527 6     -2412.908 6        41.276 6                                                                  25965034.688 5 104550454.705 5     -1848.461 5        32.656 5  25965026.473 5 110752523.999 5     -1959.504 5        34.575 5
> 2020 08 27 07 39  3.0000000  0 19       0.000000000000
G05  22310436.016 6 117242108.724 6     -1759.484 6        37.737 6  22310444.402 3  91357601.140 3     -1370.348 3        22.598 3  22310438.449 4  91357503.859 4     -1370.367 4        28.531 4                                                                
G13  20628404.785 7 108402996.271 7     -1651.867 7        44.742 7  20628403.309 5  84469850.401 5     -1287.184 5        31.290 5                                                                                                                                
G15  20041531.438 7 105318894.261 7       392.957 7        42.251 7  20041533.473 5  82066657.323 5       306.176 5        32.900 5                                                                                                                                
G29  21885892.301 5 115011168.416 5     -1797.102 5        32.144 5  21885894.133 2  89619083.445 2     -1400.406 2        16.400 2                                                                                                                                
G30  24822455.918 5 130442841.038 5     -1753.645 5        35.418 5  24822463.789 3 101643798.074 3     -1366.637 3        22.043 3  24822461.570 4 101643874.827 4     -1366.637 4        27.131 4  24822461.246 6  97408640.127 6     -1310.314 6        41.893 6
R01  21180918.203 5 113224145.726 5     -2328.838 5        31.864 5                                                                
R08  24425679.387 5 130798458.348 5     -2935.457 5        34.575 5  24425666.066 5 101732044.091 5     -2282.006 5        34.874 5
R11  23346835.406 6 124758529.120 6      2391.160 6        37.885 6                                                                
R24  19430985.922 5 103906467.691 5     -1531.670 5        34.727 5                                                                
C06  36223525.301 6 188625392.575 6       190.822 6        38.165 6  36223520.508 5 145857128.583 5       146.482 5        31.242 5  36223522.598 5 153273565.237 5       154.967 5        35.785 5
C08  36083079.363 6 187894053.148 6       134.162 6        38.616 6  36083079.078 6 145291591.406 6       103.631 6        39.926 6  36083075.008 5 152679298.396 5       108.600 5        33.527 5
C13  35761260.301 6 186218233.233 6       489.533 6        36.124 6  35761265.238 5 143995850.093 5       379.061 5        33.527 5                                                                
C16  36469514.945 5 189906334.773 5       379.670 5        35.666 5                                                                                                                                
C20  22834483.996 6 118905166.367 6     -1159.625 6        39.834 6                                                                  22834472.965 5  96620132.567 5      -942.377 5        31.864 5
C32  26383400.906 5 137385286.974 5     -2178.414 5        30.517 5                                                                                                                                
C37  25312330.754 7 131807949.259 7      1184.201 7        47.411 7                                                                  25312333.129 7 107104790.705 7       962.096 7        47.031 7
J01  39542264.762 7 207795892.666 7      -226.262 7        42.382 7  39542263.758 7 161918975.503 7      -176.402 7        42.251 7  39542267.121 7 155172344.379 7      -169.416 7        44.667 7
E05  24083672.039 5 126560532.973 5     -1392.180 5        31.242 5  24083678.184 5  94509527.377 5     -1039.064 5        35.017 5  24083673.426 5  96974971.479 5     -1068.125 5        32.144 5  24083674.055 5 102727716.457 5     -1128.703 5        34.727 5
E09  25965480.914 6 136449567.646 6     -2413.234 6        41.209 6                                                                  25965494.008 5 104552303.707 5     -1848.301 5        33.113 5  25965485.523 5 110754482.637 5     -1958.039 5        34.727 5
> 2020 08 27 07 39  4.0000000  0 18       0.000000000000
G05  22310770.539 6 117243867.709 6     -1758.900 6        37.346 6  22310778.770 3  91358971.818 3     -1370.791 3        22.768 3  22310772.113 4  91358874.538 4     -1370.771 4        28.256 4                                                                
G13  20628719.273 7 108404648.592 7     -1652.943 7        44.727 7  20628717.859 5  84471137.921 5     -1287.979 5        31.098 5                                                                                                                                
G15  20041456.574 7 105318501.505 7       391.939 7        42.034 7  20041458.766 5  82066351.282 5       305.361 5        32.900 5                                                                                                                                
G29  21886233.691 5 115012965.090 5     -1798.471 5        32.407 5  21886236.098 2  89620483.442 2     -1401.436 2        17.649 2                                                                                                                                
G30  24822789.152 5 130444595.740 5     -1755.385 5        35.418 5  24822797.723 3 101645165.383 3     -1368.096 3        20.923 3  24822795.375 4 101645242.129 4     -1368.135 4        26.943 4  24822795.117 6  97409950.432 6     -1310.320 6        41.835 6
R01  21181354.895 5 113226473.948 5     -2328.061 5        31.864 5                                                                
R08  24426227.516 5 130801392.971 5     -2933.338 5        34.727 5  24426214.766 5 101734326.652 5     -2283.086 5        34.727 5
R11  23346388.074 6 124756138.114 6      2390.131 6        37.585 6                                                                
R24  19431272.938 5 103907999.392 5     -1531.820 5        34.575 5                                                                
C06  36223488.609 6 188625202.453 6       189.436 6        38.096 6                                                                                                                                
C08  36083053.688 6 187893919.066 6       133.713 6        38.428 6                                                                                                                                
C13  35761166.441 6 186217743.446 6       488.498 6        36.014 6                                                                                                                                
C16  36469441.801 5 189905955.007 5       378.244 5        35.544 5                                                                                                                                
C20  22834706.762 6 118906326.219 6     -1159.451 6        39.788 6                                                                                                                                
C32  26383819.172 5 137387465.273 5     -2178.943 5        30.103 5                                                                                                                                
C37  25312103.246 7 131806765.451 7      1183.596 7        47.354 7                                                                                                                                
E05  24083937.020 5 126561923.795 5     -1390.580 5        31.564 5  24083942.770 5  94510566.030 5     -1038.230 5        35.017 5  24083938.121 5  96976037.187 5     -1065.625 5        31.564 5  24083938.680 5 102728845.464 5     -1129.438 5        34.727 5
E09  25965940.070 6 136451980.620 6     -2413.197 6        41.342 6                                                                  25965953.223 5 104554152.565 5     -1847.949 5        32.891 5  25965944.648 5 110756441.236 5     -1958.461 5        34.575 5
> 2020 08 27 07 39 14.0000000  0 17       0.000000000000
G05  22314119.332 6 117261463.708 6     -1760.111 6        38.554 6  22314123.223 3  91372682.890 3     -1371.861 3        23.242 3  22314118.617 4  91372585.634 4     -1371.803 4        27.703 4                                                                
G13  20631869.453 7 108421199.264 7     -1657.807 7        45.114 7  20631867.910 5  84484034.541 5     -1291.705 5        31.715 5                                                                                                                                
G15  20040715.371 7 105314604.478 7       386.334 7        42.558 7  20040717.473 5  82063314.605 5       301.518 5        32.996 5  20040719.594 3  82063397.385 3       301.557 3        22.768 3                                                                
G29  21889658.609 5 115030960.119 5     -1802.846 5        32.407 5  21889659.797 2  89634505.532 2     -1404.830 2        16.400 2                                                                                                                                
G30  24826133.363 5 130462168.665 5     -1759.760 5        35.544 5  24826141.578 3 101658858.575 3     -1371.041 3        20.660 3  24826139.090 4 101658935.312 4     -1371.080 4        26.879 4  24826140.020 7  97423073.092 7     -1314.244 7        42.382 7
R11  23341917.527 6 124732248.652 6      2387.545 6        37.427 6                                                                
R24  19434144.031 5 103923363.750 5     -1541.164 5        33.325 5                                                                
C06  36223125.703 6 188623308.013 6       188.387 6        38.096 6  36223120.551 5 145855516.708 5       145.148 5        31.242 5  36223121.918 5 153271871.326 5       154.332 5        35.785 5
C08  36082797.707 6 187892584.724 6       131.805 6        38.676 6  36082796.313 6 145290455.910 6       102.727 6        39.597 6  36082792.363 5 152678105.136 5       108.199 5        33.527 5
C13  35760225.980 6 186212849.211 6       489.344 6        36.231 6  35760230.238 5 143991686.808 5       378.508 5        33.113 5                                                                
C16  36468714.188 5 189902164.837 5       377.957 5        35.785 5                                                                                                                                
C20  22836935.109 6 118917929.778 6     -1161.166 6        39.448 6                                                                  22836923.785 5  96630503.923 5      -944.867 5        31.864 5
C32                                                                                                                                                                                                
C37  25309833.535 7 131794947.775 7      1179.559 7        47.491 7                                                                  25309836.512 7 107094225.960 7       958.453 7        47.288 7
J01  39542737.379 7 207798379.907 7      -226.068 7        42.407 7  39542736.879 7 161920913.590 7      -175.416 7        42.171 7  39542740.090 7 155174201.740 7      -168.734 7        44.543 7
E05  24086586.234 5 126575841.945 5     -1392.475 5        31.242 5  24086591.922 5  94520959.405 5     -1040.182 5        35.666 5  24086586.262 5  96986701.659 5     -1067.176 5        31.564 5  24086587.809 5 102740142.595 5     -1130.564 5        35.017 5
E09  25970530.758 6 136476106.912 6     -2411.537 6        40.967 6                                                                  25970544.273 5 104572639.023 5     -1849.031 5        32.891 5  25970535.309 5 110776024.306 5     -1958.338 5        34.253 5
> 2020 08 27 07 39 15.0000000  0 17       0.000000000000
G05  22314454.449 6 117263224.170 6     -1760.273 6        38.491 6  22314457.684 4  91374054.666 4     -1371.906 4        24.416 4  22314453.875 4  91373957.409 4     -1371.887 4        27.483 4                                                                
G13  20632184.254 7 108422857.328 7     -1657.695 7        44.989 7  20632183.578 5  84485326.541 5     -1291.672 5        31.629 5                                                                                                                                
G15  20040641.961 7 105314218.075 7       386.521 7        42.433 7  20040644.137 5  82063013.498 5       302.254 5        32.751 5  20040645.754 3  82063096.275 3       302.273 3        22.932 3                                                                
G29  21890001.598 5 115032762.776 5     -1803.535 5        31.864 5  21890002.770 2  89635910.198 2     -1405.480 2        15.608 2                                                                                                                                
G30  24826468.195 5 130463928.878 5     -1761.348 5        34.874 5  24826476.379 3 101660230.131 3     -1371.105 3        20.379 3  24826474.133 4 101660306.874 4     -1371.105 4        26.680 4  24826474.895 7  97424387.498 7     -1314.117 7        42.304 7
R11  23341471.641 6 124729862.067 6      2386.160 6        37.093 6                                                                
R24  19434431.207 5 103924905.093 5     -1541.162 5        33.325 5                                                                
C06  36223089.566 6 188623119.526 6       188.652 6        38.096 6  36223084.418 5 145855370.902 5       145.637 5        30.895 5  36223085.570 6 153271718.200 6       152.766 6        36.124 6
C08  36082772.199 6 187892452.183 6       132.422 6        38.554 6  36082770.840 6 145290353.435 6       102.570 6        39.294 6  36082766.840 5 152677997.486 5       107.336 5        33.720 5
C13  35760132.039 6 186212360.509 6       488.379 6        36.231 6  35760136.473 5 143991308.907 5       378.488 5        32.891 5                                                                
C16  36468641.672 5 189901786.826 5       378.672 5        35.544 5                                                                                                                                
C20  22837158.113 6 118919090.883 6     -1161.230 6        39.346 6                                                                  22837146.730 5  96631447.440 5      -944.266 5        32.144 5
C32                                                                                                                                                                                                
C37  25309606.945 7 131793768.298 7      1179.316 7        47.370 7                                                                  25309610.094 7 107093267.528 7       958.352 7        47.179 7
J01  39542781.090 7 207798605.738 7      -225.217 7        42.171 7  39542780.086 7 161921089.581 7      -175.363 7        42.034 7  39542783.105 7 155174370.383 7      -168.395 7        44.481 7
E05  24086850.590 5 126577234.952 5     -1394.102 5        31.242 5  24086856.961 5  94521999.634 5     -1040.133 5        35.544 5  24086851.266 5  96987769.021 5     -1068.641 5        31.864 5  24086853.055 5 102741273.213 5     -1129.543 5        35.666 5
E09  25970990.148 6 136478519.503 6     -2412.520 6        40.895 6                                                                  25971003.484 5 104574487.588 5     -1848.875 5        32.656 5  25970994.387 5 110777982.551 5     -1958.762 5        33.905 5
> 2020 08 27 07 39 16.0000000  0 17       0.000000000000
G05  22314789.227 6 117264984.649 6     -1760.090 6        38.911 6  22314792.203 4  91375426.450 4     -1371.100 4        24.529 4  22314789.371 4  91375329.200 4     -1371.139 4        27.539 4                                                                
G13  20632500.145 7 108424515.847 7     -1658.742 7        45.058 7  20632499.129 5  84486618.906 5     -1292.584 5        31.267 5                                                                                                                                
G15  20040568.355 7 105313832.175 7       385.850 7        42.632 7  20040570.547 5  82062712.803 5       302.318 5        32.768 5  20040572.863 3  82062795.565 3       302.338 3        22.598 3                                                                
G29  21890344.391 5 115034565.818 5     -1802.336 5        32.407 5  21890345.949 2  89637315.171 2     -1404.381 2        15.608 2                                                                                                                                
G30  24826802.547 5 130465689.439 5     -1761.418 5        34.874 5  24826811.504 3 101661602.020 3     -1372.037 3        20.379 3  24826808.484 4 101661678.761 4     -1371.998 4        26.943 4  24826810.008 7  97425702.215 7     -1314.281 7        42.330 7
R11  23341022.844 6 124727475.764 6      2386.197 6        37.346 6                                                                
R24  19434719.191 5 103926447.263 5     -1542.453 5        33.527 5                                                                
C06  36223053.273 6 188622931.063 6       188.877 6        38.027 6  36223047.871 5 145855225.183 5       145.852 5        31.242 5  36223049.262 5 153271565.078 5       153.217 5        35.785 5
C08  36082747.031 6 187892319.715 6       132.646 6        38.736 6  36082745.598 6 145290250.997 6       102.609 6        39.693 6  36082741.434 5 152677889.780 5       108.803 5        33.325 5
C13  35760037.793 5 186211871.737 5       488.955 5        35.901 5  35760042.656 5 143990930.960 5       379.484 5        33.113 5                                                                
C16  36468569.215 5 189901408.904 5       378.135 5        35.666 5                                                                                                                                
C20  22837381.102 6 118920251.994 6     -1161.670 6        39.188 6                                                                  22837369.648 5  96632390.885 5      -943.326 5        31.864 5
C32                                                                                                                                                                                                
C37  25309380.520 7 131792589.111 7      1179.268 7        47.483 7                                                                  25309383.543 7 107092309.353 7       958.061 7        47.296 7
J01  39542823.676 7 207798831.449 7      -225.771 7        42.251 7  39542823.031 7 161921265.464 7      -176.334 7        42.034 7  39542826.145 7 155174538.907 7      -168.148 7        44.697 7
E05  24087115.469 5 126578627.959 5     -1393.273 5        31.864 5  24087122.066 5  94523039.873 5     -1040.902 5        35.901 5  24087116.336 5  96988836.396 5     -1067.098 5        31.864 5  24087118.160 5 102742404.007 5     -1131.936 5        35.017 5
E09  25971449.707 6 136480931.917 6     -2412.570 6        40.672 6                                                                  25971462.656 5 104576336.019 5     -1847.840 5        32.656 5  25971453.313 5 110779940.690 5     -1958.928 5        33.905 5
> 2020 08 27 07 39 17.0000000  0 18       0.000000000000
G05  22315124.496 6 117266745.283 6     -1760.477 6        39.079 6  22315126.844 4  91376798.384 4     -1372.119 4        24.639 4  22315124.570 4  91376701.149 4     -1372.119 4        27.483 4                                                                
G13  20632816.094 7 108426174.894 7     -1659.285 7        45.248 7  20632814.809 5  84487911.664 5     -1292.959 5        31.147 5                                                                                                                                
G15  20040494.953 7 105313446.883 7       384.760 7        42.607 7  20040497.145 5  82062412.609 5       301.221 5        32.948 5  20040499.820 3  82062495.367 3       301.182 3        23.090 3                                                                
G29  21890687.957 5 115036369.470 5     -1804.656 5        31.864 5  21890689.145 2  89638720.598 2     -1406.221 2        13.390 2                                                                                                                                
G30  24827137.816 5 130467450.542 5     -1761.023 5        35.288 5  24827146.559 3 101662974.287 3     -1371.826 3        20.923 3  24827143.969 4 101663051.032 4     -1371.865 4        27.069 4  24827145.434 7  97427017.322 7     -1315.318 7        42.356 7
R02  20429412.551 5 109015226.941 5       636.527 5        32.656 5                                                                
R11  23340578.254 6 124725089.882 6      2386.377 6        37.263 6                                                                
R24  19435008.238 5 103927990.384 5     -1543.877 5        33.325 5                                                                
C06  36223016.969 6 188622742.764 6       188.998 6        37.956 6  36223011.746 5 145855079.604 5       145.732 5        31.242 5  36223013.141 5 153271412.105 5       152.391 5        35.901 5
C08  36082721.922 6 187892187.447 6       130.971 6        38.428 6  36082720.242 6 145290148.717 6       101.885 6        39.498 6  36082716.012 5 152677782.287 5       109.031 5        33.325 5
C13  35759944.145 6 186211383.062 6       489.564 6        36.014 6  35759948.688 5 143990553.173 5       376.377 5        33.720 5                                                                
C16  36468496.777 5 189901031.155 5       377.064 5        35.785 5                                                                                                                                
C20  22837603.867 6 118921413.198 6     -1160.924 6        39.134 6                                                                  22837592.684 5  96633334.424 5      -943.156 5        32.407 5
C32                                                                                                                                                                                                
C37  25309154.328 7 131791410.338 7      1178.861 7        47.346 7                                                                  25309156.977 7 107091351.516 7       957.547 7        47.419 7
J01  39542866.680 7 207799057.079 7      -225.301 7        42.433 7  39542866.250 7 161921441.261 7      -175.186 7        42.251 7  39542869.234 7 155174707.418 7      -168.539 7        44.465 7
E05  24087380.410 5 126580021.204 5     -1393.523 5        31.864 5  24087387.285 5  94524080.275 5     -1040.240 5        35.785 5  24087381.398 5  96989903.964 5     -1068.234 5        31.564 5  24087383.129 5 102743534.875 5     -1131.197 5        35.544 5
E09  25971907.961 6 136483344.293 6     -2412.371 6        40.748 6                                                                  25971921.742 5 104578184.537 5     -1849.406 5        32.891 5  25971912.367 5 110781898.725 5     -1956.668 5        33.527 5
> 2020 08 27 07 39 18.0000000  0 18       0.000000000000
G05  22315459.512 6 117268506.173 6     -1760.398 6        39.241 6  22315461.488 4  91378170.483 4     -1371.834 4        25.246 4  22315458.367 4  91378073.257 4     -1371.873 4        27.649 4                                                                
G13  20633132.082 7 108427834.573 7     -1659.324 7        45.275 7  20633130.465 5  84489204.929 5     -1292.928 5        31.313 5                                                                                                                                
G15  20040421.441 7 105313062.255 7       384.602 7        42.728 7  20040423.848 5  82062112.933 5       298.732 5        32.964 5  20040426.238 3  82062195.688 3       298.752 3        22.932 3                                                                
G29  21891030.844 5 115038173.757 5     -1804.324 5        31.564 5  21891032.563 2  89640126.520 2     -1405.955 2        16.400 2                                                                                                                                
G30  24827472.973 5 130469212.264 5     -1762.137 5        34.575 5  24827481.816 3 101664347.066 3     -1372.830 3        20.379 3  24827479.559 4 101664423.810 4     -1372.830 4        26.943 4  24827480.707 7  97428332.884 7     -1315.328 7        42.330 7
R02  20429294.707 5 109014590.029 5       636.834 5        33.113 5                                                                
R11  23340132.555 6 124722704.565 6      2385.428 6        37.346 6                                                                
R24  19435297.746 5 103929534.514 5     -1545.137 5        33.720 5                                                                
C06  36222981.020 6 188622554.740 6       189.488 6        37.956 6  36222975.582 5 145854934.221 5       146.219 5        31.864 5  36222977.207 5 153271259.257 5       153.400 5        35.901 5
C08  36082696.598 6 187892055.370 6       131.637 6        38.491 6  36082694.988 6 145290046.605 6       102.195 6        39.693 6  36082690.852 5 152677674.980 5       109.748 5        33.527 5
C13  35759850.277 6 186210894.647 6       489.059 6        36.335 6  35759854.965 5 143990175.463 5       377.059 5        32.891 5                                                                
C16  36468424.090 5 189900653.656 5       377.652 5        35.666 5                                                                                                                                
C20  22837826.984 6 118922574.694 6     -1162.230 6        39.346 6                                                                  22837815.750 5  96634278.271 5      -943.963 5        31.864 5
C32                                                                                                                                                                                                
C37  25308928.031 7 131790232.091 7      1178.354 7        47.362 7                                                                  25308930.758 7 107090394.074 7       957.736 7        47.451 7
J01  39542909.789 7 207799282.778 7      -225.105 7        42.433 7  39542908.715 7 161921617.139 7      -175.857 7        42.251 7  39542912.305 7 155174875.943 7      -168.082 7        44.575 7
E05  24087646.027 5 126581414.756 5     -1392.273 5        32.144 5  24087652.543 5  94525120.903 5     -1040.348 5        35.785 5  24087646.691 5  96990971.703 5     -1066.145 5        31.864 5  24087648.316 5 102744665.989 5     -1130.590 5        35.017 5
E09  25972366.895 6 136485756.742 6     -2412.117 6        40.634 6                                                                  25972380.813 5 104580032.986 5     -1847.727 5        32.891 5  25972371.445 5 110783856.919 5     -1957.973 5        34.082 5
> 2020 08 27 07 39 19.0000000  0 18       0.000000000000
G05  22315794.754 6 117270266.993 6     -1760.332 6        39.346 6  22315796.082 4  91379542.552 4     -1372.127 4        24.746 4  22315793.680 4  91379445.321 4     -1372.107 4        27.369 4                                                                
G13  20633447.715 7 108429494.596 7     -1660.000 7        45.340 7  20633446.441 5  84490498.450 5     -1293.436 5        31.243 5                                                                                                                                
G15  20040349.301 7 105312678.057 7       384.258 7        43.092 7  20040350.758 5  82061813.542 5       298.186 5        33.182 5  20040352.734 3  82061896.300 3       298.244 3        22.598 3                                                                
G29  21891374.238 5 115039978.369 5     -1804.453 5        30.895 5  21891376.027 2  89641532.715 2     -1406.033 2        15.608 2                                                                                                                                
G30  24827808.070 5 130470974.283 5     -1762.539 5        34.575 5  24827817.172 3 101665720.073 3     -1372.908 3        20.660 3  24827814.438 4 101665796.815 4     -1372.908 4        26.879 4  24827816.031 7  97429648.694 7     -1315.771 7        42.458 7
R02  20429177.379 5 109013953.229 5       635.791 5        32.891 5                                                                
R11  23339687.367 6 124720319.427 6      2384.818 6        37.585 6                                                                
R24  19435585.766 5 103931079.210 5     -1544.691 5        33.905 5                                                                
C06  36222944.684 6 188622366.697 6       188.967 6        38.096 6  36222939.746 5 145854788.831 5       144.299 5        31.242 5  36222941.070 5 153271106.472 5       153.025 5        35.901 5
C08  36082671.172 6 187891923.307 6       131.955 6        38.364 6  36082669.668 6 145289944.488 6       101.135 6        39.597 6  36082665.664 5 152677567.694 5       107.498 5        33.527 5
C13  35759756.453 6 186210406.184 6       488.869 6        36.231 6  35759761.176 5 143989797.661 5       378.850 5        32.891 5                                                                
C16  36468351.480 5 189900276.150 5       377.170 5        35.785 5                                                                                                                                
C20  22838049.789 6 118923736.038 6     -1161.072 6        39.079 6                                                                  22838038.691 5  96635221.935 5      -942.756 5        32.144 5
C32                                                                                                                                                                                                
C37  25308701.742 7 131789054.035 7      1177.992 7        47.370 7                                                                  25308704.441 7 107089436.819 7       957.166 7        47.395 7
J01  39542952.762 7 207799508.227 7      -225.449 7        42.382 7  39542951.688 7 161921792.789 7      -175.271 7        42.034 7  39542955.145 7 155175044.294 7      -167.881 7        44.712 7
E05  24087911.293 5 126582808.322 5     -1394.082 5        31.864 5  24087917.805 6  94526161.542 6     -1039.873 6        36.014 6  24087911.945 5  96992039.515 5     -1066.736 5        32.144 5  24087913.441 5 102745797.145 5     -1132.479 5        35.017 5
E09  25972826.125 6 136488168.995 6     -2412.598 6        40.556 6                                                                  25972839.805 5 104581881.314 5     -1848.084 5        32.891 5  25972830.332 5 110785814.930 5     -1958.143 5        33.905 5
> 2020 08 27 07 39 20.0000000  0 18       0.000000000000
G05  22316130.324 6 117272027.958 6     -1760.457 6        39.693 6  22316130.754 4  91380914.725 4     -1371.840 4        24.529 4  22316128.465 4  91380817.491 4     -1371.820 4        27.252 4                                                                
G13  20633763.969 7 108431155.137 7     -1660.203 7        45.275 7  20633762.426 5  84491792.378 5     -1293.676 5        31.313 5                                                                                                                                
G15  20040276.344 7 105312294.410 7       383.703 7        43.135 7  20040277.574 5  82061514.555 5       300.426 5        33.105 5  20040279.922 3  82061597.313 3       300.387 3        22.768 3                                                                
G29  21891717.395 5 115041783.646 5     -1806.082 5        30.895 5  21891719.527 2  89642939.438 2     -1407.309 2        16.400 2                                                                                                                                
G30  24828143.641 5 130472736.826 5     -1763.074 5        34.082 5  24828152.527 3 101667093.455 3     -1373.051 3        20.660 3  24828149.867 4 101667170.195 4     -1373.031 4        26.879 4  24828151.504 7  97430964.879 7     -1316.070 7        42.558 7
R02  20429060.664 5 109013316.758 5       638.342 5        33.325 5                                                                
R11  23339240.074 6 124717934.634 6      2386.295 6        37.427 6                                                                
R24  19435877.402 5 103932624.834 5     -1545.051 5        34.253 5                                                                
C06  36222908.719 6 188622178.786 6       188.549 6        37.885 6  36222903.672 5 145854643.492 5       145.680 5        31.864 5  36222904.969 5 153270953.768 5       152.783 5        35.901 5
C08  36082645.758 6 187891791.368 6       131.693 6        38.491 6  36082644.219 6 145289842.445 6       102.848 6        39.880 6  36082640.223 5 152677460.505 5       107.061 5        33.720 5
C13  35759662.395 6 186209917.803 6       489.076 6        36.335 6  35759666.828 5 143989420.063 5       378.121 5        33.527 5                                                                
C16  36468279.168 5 189899898.798 5       378.002 5        35.666 5                                                                                                                                
C20  22838272.496 6 118924897.519 6     -1160.787 6        38.676 6                                                                  22838261.723 5  96636165.753 5      -942.881 5        31.864 5
C32                                                                                                                                                                                                
C37  25308475.285 7 131787876.373 7      1178.061 7        47.411 7                                                                  25308478.391 7 107088479.870 7       957.297 7        47.435 7
J01  39542995.996 7 207799733.599 7      -224.656 7        42.458 7  39542994.637 7 161921968.436 7      -175.277 7        42.144 7  39542998.020 7 155175212.610 7      -168.180 7        44.712 7
E05  24088176.176 5 126584202.086 5     -1393.875 5        31.864 5  24088183.066 6  94527202.336 6     -1040.367 6        36.231 6  24088177.121 5  96993107.459 5     -1067.836 5        31.864 5  24088178.609 5 102746928.400 5     -1131.939 5        35.017 5
E09  25973285.254 6 136490581.170 6     -2411.377 6        40.672 6                                                                  25973298.863 5 104583729.604 5     -1846.215 5        32.407 5  25973289.320 5 110787772.856 5     -1958.346 5        33.720 5
